{
  "type": "FeatureCollection",
  "features": [
    {
      "type": "Feature",
      "geometry": {
        "type": "Point",
        "coordinates": [
          -92.621167,
          44.396297
        ]
      },
      "properties": {
        "Retailer": "Ag Partners",
        "Suppliers": "",
        "ContactName": "Dan Stamschror",
        "ContactTitle": "Agronomy Dept. Mgr.",
        "Title": "Agronomy Dept. Mgr.",
        "Email": "dans@agpartners.net",
        "OfficePhone": "651-923-4496",
        "CellPhone": "651-764-3095",
        "Address": "301 S. Broadway St.",
        "City": "Goodhue",
        "State": "MN",
        "Zip": "55027",
        "FullAddress": "301 S. Broadway St., Goodhue, MN 55027",
        "Category": "Agronomy",
        "FacilityName": "",
        "LongName": "",
        "MatchTier": "TBD",
        "GeoSource": "MAPBOX"
      }
    },
    {
      "type": "Feature",
      "geometry": {
        "type": "Point",
        "coordinates": [
          -99.896741,
          40.301759
        ]
      },
      "properties": {
        "Retailer": "Ag Valley Coop",
        "Suppliers": "Winfield",
        "ContactName": "Kirk Nielsen",
        "ContactTitle": "Agron. Dept. Mgr.",
        "Title": "Agron. Dept. Mgr.",
        "Email": "kmnielsen@agvalley.com",
        "OfficePhone": "800-228-1352",
        "CellPhone": "308-962-4589",
        "Address": "601 Main St.",
        "City": "Arapahoe",
        "State": "NE",
        "Zip": "68922",
        "FullAddress": "601 Main St., Arapahoe, NE 68922",
        "Category": "Corporate HQ",
        "FacilityName": "Arapahoe (Headquarters)",
        "LongName": "Ag Valley Cooperative – NE KS",
        "MatchTier": "T1",
        "GeoSource": "FACILITY"
      }
    },
    {
      "type": "Feature",
      "geometry": {
        "type": "Point",
        "coordinates": [
          -97.986363,
          43.393979
        ]
      },
      "properties": {
        "Retailer": "AgLand Coop",
        "Suppliers": "",
        "ContactName": "Todd Kludt",
        "ContactTitle": "VP Agronomy",
        "Title": "VP Agronomy",
        "Email": "todd@aglandsd.com",
        "OfficePhone": "",
        "CellPhone": "605-928-3381",
        "Address": "115 S. 1st St.",
        "City": "Parkston",
        "State": "SD",
        "Zip": "57366",
        "FullAddress": "115 S. 1st St., Parkston, SD 57366",
        "Category": "Agronomy",
        "FacilityName": "Parkston Agronomy Center",
        "LongName": "AgLand Cooperative - SD",
        "MatchTier": "T1",
        "GeoSource": "FACILITY"
      }
    },
    {
      "type": "Feature",
      "geometry": {
        "type": "Point",
        "coordinates": [
          -94.00228,
          41.33798
        ]
      },
      "properties": {
        "Retailer": "Agriland FS",
        "Suppliers": "Growmark",
        "ContactName": "John Knobloch",
        "ContactTitle": "General Mgr",
        "Title": "General Mgr",
        "Email": "jknobloch@agrilandfs.com",
        "OfficePhone": "(515) 462-5353",
        "CellPhone": "",
        "Address": "421 N. 10th Street",
        "City": "Winterset",
        "State": "IA",
        "Zip": "50273",
        "FullAddress": "421 N. 10th Street, Winterset, IA, 50273",
        "Category": "Corporate HQ",
        "FacilityName": "Winterset Agronomy",
        "LongName": "Agriland FS - IA",
        "MatchTier": "T1",
        "GeoSource": "FACILITY"
      }
    },
    {
      "type": "Feature",
      "geometry": {
        "type": "Point",
        "coordinates": [
          -98.442432,
          45.455726
        ]
      },
      "properties": {
        "Retailer": "Agtegra",
        "Suppliers": "Winfield, Rosen's",
        "ContactName": "Brett Harrison",
        "ContactTitle": "Head of CP",
        "Title": "Head of CP",
        "Email": "brett.harrison@agtegra.com",
        "OfficePhone": "605-570-0772",
        "CellPhone": "605-225-5500",
        "Address": "908 Lamont St.",
        "City": "South Aberdeen",
        "State": "SD",
        "Zip": "57401",
        "FullAddress": "908 Lamont St., South Aberdeen, SD 57401",
        "Category": "Corporate HQ",
        "FacilityName": "Agtegra Coop.",
        "LongName": "Agtegra - SD ND MN",
        "MatchTier": "T3",
        "GeoSource": "FACILITY"
      }
    },
    {
      "type": "Feature",
      "geometry": {
        "type": "Point",
        "coordinates": [
          -98.442432,
          45.455726
        ]
      },
      "properties": {
        "Retailer": "Agtegra",
        "Suppliers": "Winfield, Rosen's",
        "ContactName": "Aaron Rogers",
        "ContactTitle": "Proprietary Product MGR",
        "Title": "Proprietary Product MGR",
        "Email": "aaron.rogers@agtegra.com",
        "OfficePhone": "",
        "CellPhone": "605-350-3821",
        "Address": "908 Lamont St.",
        "City": "South Aberdeen",
        "State": "SD",
        "Zip": "57401",
        "FullAddress": "908 Lamont St., South Aberdeen, SD 57401",
        "Category": "Corporate HQ",
        "FacilityName": "Agtegra Coop.",
        "LongName": "Agtegra - SD ND MN",
        "MatchTier": "T3",
        "GeoSource": "FACILITY"
      }
    },
    {
      "type": "Feature",
      "geometry": {
        "type": "Point",
        "coordinates": [
          -98.442432,
          45.455726
        ]
      },
      "properties": {
        "Retailer": "Agtegra",
        "Suppliers": "Winfield, Rosen's",
        "ContactName": "Brad Ruden",
        "ContactTitle": "Technical Mgr.",
        "Title": "Technical Mgr.",
        "Email": "brad.ruden@agtegra.com",
        "OfficePhone": "(605) 651-4159",
        "CellPhone": "(605) 725-8331",
        "Address": "908 Lamont St.",
        "City": "South Aberdeen",
        "State": "SD",
        "Zip": "57401",
        "FullAddress": "908 Lamont St., South Aberdeen, SD 57401",
        "Category": "Corporate HQ",
        "FacilityName": "Agtegra Coop.",
        "LongName": "Agtegra - SD ND MN",
        "MatchTier": "T3",
        "GeoSource": "FACILITY"
      }
    },
    {
      "type": "Feature",
      "geometry": {
        "type": "Point",
        "coordinates": [
          -98.442432,
          45.455726
        ]
      },
      "properties": {
        "Retailer": "Agtegra",
        "Suppliers": "Winfield, Rosen's",
        "ContactName": "Ryan Schuchhardt",
        "ContactTitle": "Head. Of Sales Agronomy",
        "Title": "Head. Of Sales Agronomy",
        "Email": "ryan.schuchhardt@agtegra.com",
        "OfficePhone": "",
        "CellPhone": "(605)-350-3156",
        "Address": "908 Lamont St.",
        "City": "South Aberdeen",
        "State": "SD",
        "Zip": "57401",
        "FullAddress": "908 Lamont St., South Aberdeen, SD 57401",
        "Category": "Corporate HQ",
        "FacilityName": "Agtegra Coop.",
        "LongName": "Agtegra - SD ND MN",
        "MatchTier": "T3",
        "GeoSource": "FACILITY"
      }
    },
    {
      "type": "Feature",
      "geometry": {
        "type": "Point",
        "coordinates": [
          -98.258104,
          44.054828
        ]
      },
      "properties": {
        "Retailer": "Agtegra",
        "Suppliers": "Winfield, Rosen's",
        "ContactName": "Jason White",
        "ContactTitle": "Branch Mgr.",
        "Title": "Branch Mgr.",
        "Email": "jason.white@agtegra.com",
        "OfficePhone": "",
        "CellPhone": "605-846-1166",
        "Address": "39758 SD Hwy. 34",
        "City": "Woonsocket",
        "State": "SD",
        "Zip": "57385",
        "FullAddress": "39758 SD Hwy. 34, Woonsocket, SD 57385",
        "Category": "Agronomy",
        "FacilityName": "Agtegra Woonsocket",
        "LongName": "Agtegra - SD ND MN",
        "MatchTier": "T1",
        "GeoSource": "FACILITY"
      }
    },
    {
      "type": "Feature",
      "geometry": {
        "type": "Point",
        "coordinates": [
          -98.381588,
          45.463028
        ]
      },
      "properties": {
        "Retailer": "Agtegra",
        "Suppliers": "Winfield, Rosen's",
        "ContactName": "David J. Merxbauer",
        "ContactTitle": "Branch Mgr. (Bath)",
        "Title": "Branch Mgr. (Bath)",
        "Email": "david.merxbauer@agtegra.com",
        "OfficePhone": "605-225-3280",
        "CellPhone": "605-268-0775",
        "Address": "105 392nd Avenue S",
        "City": "Aberdeen",
        "State": "SD",
        "Zip": "57401",
        "FullAddress": "105 392nd Avenue S, Aberdeen, SD 57401",
        "Category": "Agronomy",
        "FacilityName": "Agtegra Bath Fertilizer",
        "LongName": "Agtegra - SD ND MN",
        "MatchTier": "T1",
        "GeoSource": "FACILITY"
      }
    },
    {
      "type": "Feature",
      "geometry": {
        "type": "Point",
        "coordinates": [
          -92.48162,
          42.70829
        ]
      },
      "properties": {
        "Retailer": "Agvantage FS",
        "Suppliers": "Growmark",
        "ContactName": "Matt Kruse",
        "ContactTitle": "General Mgr",
        "Title": "General Mgr",
        "Email": "mkruse@agvantagefs.com",
        "OfficePhone": "(319) 483-4900",
        "CellPhone": "",
        "Address": "1600 8th Street SW",
        "City": "Waverly",
        "State": "IA",
        "Zip": "50677",
        "FullAddress": "1600 8th Street SW, Waverly, IA 50677",
        "Category": "Corporate HQ",
        "FacilityName": "Waverly Agronomy",
        "LongName": "AgVantage FS - IA",
        "MatchTier": "T1",
        "GeoSource": "FACILITY"
      }
    },
    {
      "type": "Feature",
      "geometry": {
        "type": "Point",
        "coordinates": [
          -92.667806,
          43.048046
        ]
      },
      "properties": {
        "Retailer": "Agvantage FS",
        "Suppliers": "Growmark",
        "ContactName": "Jordan Heit",
        "ContactTitle": "Crop Specialist",
        "Title": "Crop Specialist",
        "Email": "jheit@agvantagefs.com",
        "OfficePhone": "641-228-1153",
        "CellPhone": "319-215-9278",
        "Address": "2131 Old Hwy. Rd.",
        "City": "Charles City",
        "State": "IA",
        "Zip": "50616",
        "FullAddress": "2131 Old Hwy. Rd., Charles City, IA 50616",
        "Category": "Agronomy",
        "FacilityName": "AgVantage FS - Charles City",
        "LongName": "AgVantage FS - IA",
        "MatchTier": "T1",
        "GeoSource": "FACILITY"
      }
    },
    {
      "type": "Feature",
      "geometry": {
        "type": "Point",
        "coordinates": [
          -90.665015,
          42.051906
        ]
      },
      "properties": {
        "Retailer": "Agvantage FS",
        "Suppliers": "Growmark",
        "ContactName": "Rick Schwennen",
        "ContactTitle": "Crop Consultant",
        "Title": "Crop Consultant",
        "Email": "rschwennen@agvantagefs.com",
        "OfficePhone": "563-652-5636",
        "CellPhone": "319-559-8471",
        "Address": "20081 22nd St",
        "City": "Maquoketa",
        "State": "IA",
        "Zip": "52060",
        "FullAddress": "20081 22nd St, Maquoketa, IA 52060",
        "Category": "Agronomy",
        "FacilityName": "Maquoketa Agronomy",
        "LongName": "AgVantage FS - IA",
        "MatchTier": "T1",
        "GeoSource": "FACILITY"
      }
    },
    {
      "type": "Feature",
      "geometry": {
        "type": "Point",
        "coordinates": [
          -97.12872,
          44.87293
        ]
      },
      "properties": {
        "Retailer": "AgWrx",
        "Suppliers": "Winfield",
        "ContactName": "Wade Goens",
        "ContactTitle": "Agron. Mgr.",
        "Title": "Agron. Mgr.",
        "Email": "wgoens@agwrxcoop.com",
        "OfficePhone": "605-886-8333",
        "CellPhone": "606-695-3986",
        "Address": "812 20th Ave. SW",
        "City": "Watertown",
        "State": "SD",
        "Zip": "57201",
        "FullAddress": "812 20th Ave. SW, Watertown, SD 57201",
        "Category": "Agronomy",
        "FacilityName": "",
        "LongName": "",
        "MatchTier": "TBD",
        "GeoSource": "MAPBOX"
      }
    },
    {
      "type": "Feature",
      "geometry": {
        "type": "Point",
        "coordinates": [
          -93.889432,
          43.491773
        ]
      },
      "properties": {
        "Retailer": "Asmus Farm Supply",
        "Suppliers": "Nutrien, Winfield",
        "ContactName": "Harlan Asmus",
        "ContactTitle": "Owner",
        "Title": "Owner",
        "Email": "harlan@afschem.com",
        "OfficePhone": "641-566-3658",
        "CellPhone": "",
        "Address": "50245 40th Ave",
        "City": "Rake",
        "State": "IA",
        "Zip": "50465",
        "FullAddress": "50245 40th Ave, Rake, IA 50465",
        "Category": "Agronomy",
        "FacilityName": "",
        "LongName": "",
        "MatchTier": "TBD",
        "GeoSource": "MAPBOX"
      }
    },
    {
      "type": "Feature",
      "geometry": {
        "type": "Point",
        "coordinates": [
          -93.889432,
          43.491773
        ]
      },
      "properties": {
        "Retailer": "Asmus Farm Supply",
        "Suppliers": "Nutrien, Winfield",
        "ContactName": "Amy Asmus",
        "ContactTitle": "Owner",
        "Title": "Owner",
        "Email": "amy@afschem.com",
        "OfficePhone": "641-566-3672",
        "CellPhone": "641-590-1658",
        "Address": "50245 40th Ave",
        "City": "Rake",
        "State": "IA",
        "Zip": "50465",
        "FullAddress": "50245 40th Ave, Rake, IA 50465",
        "Category": "Agronomy",
        "FacilityName": "",
        "LongName": "",
        "MatchTier": "TBD",
        "GeoSource": "MAPBOX"
      }
    },
    {
      "type": "Feature",
      "geometry": {
        "type": "Point",
        "coordinates": [
          -93.889432,
          43.491773
        ]
      },
      "properties": {
        "Retailer": "Asmus Farm Supply",
        "Suppliers": "Nutrien, Winfield",
        "ContactName": "Cody Wertjes",
        "ContactTitle": "Department Mgr.",
        "Title": "Department Mgr.",
        "Email": "cody@afschem.com",
        "OfficePhone": "641-566-3658",
        "CellPhone": "",
        "Address": "50245 40th Ave",
        "City": "Rake",
        "State": "IA",
        "Zip": "50465",
        "FullAddress": "50245 40th Ave, Rake, IA 50465",
        "Category": "Agronomy",
        "FacilityName": "",
        "LongName": "",
        "MatchTier": "TBD",
        "GeoSource": "MAPBOX"
      }
    },
    {
      "type": "Feature",
      "geometry": {
        "type": "Point",
        "coordinates": [
          -98.003,
          40.867245
        ]
      },
      "properties": {
        "Retailer": "Aurora Coop.",
        "Suppliers": "Winfield",
        "ContactName": "Lucas Birch",
        "ContactTitle": "Agron. Sales Rep.",
        "Title": "Agron. Sales Rep.",
        "Email": "burchla13@gmail.com",
        "OfficePhone": "402-694-2106",
        "CellPhone": "308-746-2807",
        "Address": "2225 Q St.",
        "City": "Aurora",
        "State": "NE",
        "Zip": "68818",
        "FullAddress": "2225 Q St., Aurora, NE 68818",
        "Category": "Corporate HQ",
        "FacilityName": "Aurora Corporate Office",
        "LongName": "Aurora Coop - NE, IA, KS, CO, TX",
        "MatchTier": "T3",
        "GeoSource": "FACILITY"
      }
    },
    {
      "type": "Feature",
      "geometry": {
        "type": "Point",
        "coordinates": [
          -98.003,
          40.867245
        ]
      },
      "properties": {
        "Retailer": "Aurora Coop.",
        "Suppliers": "Winfield",
        "ContactName": "Chris Decker",
        "ContactTitle": "Chief Executive Officer",
        "Title": "Chief Executive Officer",
        "Email": "cdecker@auroracoop.com",
        "OfficePhone": "402-694-2106",
        "CellPhone": "",
        "Address": "2225 Q St.",
        "City": "Aurora",
        "State": "NE",
        "Zip": "68818",
        "FullAddress": "2225 Q St., Aurora, NE 68818",
        "Category": "Corporate HQ",
        "FacilityName": "Aurora Corporate Office",
        "LongName": "Aurora Coop - NE, IA, KS, CO, TX",
        "MatchTier": "T3",
        "GeoSource": "FACILITY"
      }
    },
    {
      "type": "Feature",
      "geometry": {
        "type": "Point",
        "coordinates": [
          -98.003,
          40.867245
        ]
      },
      "properties": {
        "Retailer": "Aurora Coop.",
        "Suppliers": "Winfield",
        "ContactName": "Carl Smith",
        "ContactTitle": "Chief Financial Officer",
        "Title": "Chief Financial Officer",
        "Email": "csmith@auroracoop.com",
        "OfficePhone": "402-694-2106",
        "CellPhone": "",
        "Address": "2225 Q St.",
        "City": "Aurora",
        "State": "NE",
        "Zip": "68818",
        "FullAddress": "2225 Q St., Aurora, NE 68818",
        "Category": "Corporate HQ",
        "FacilityName": "Aurora Corporate Office",
        "LongName": "Aurora Coop - NE, IA, KS, CO, TX",
        "MatchTier": "T3",
        "GeoSource": "FACILITY"
      }
    },
    {
      "type": "Feature",
      "geometry": {
        "type": "Point",
        "coordinates": [
          -98.003,
          40.867245
        ]
      },
      "properties": {
        "Retailer": "Aurora Coop.",
        "Suppliers": "Winfield",
        "ContactName": "Dan Karr",
        "ContactTitle": "Dir of Crop Nutrients",
        "Title": "Dir of Crop Nutrients",
        "Email": "dkarr@auroracoop.com",
        "OfficePhone": "402-694-7745",
        "CellPhone": "402-631-3550",
        "Address": "2225 Q St.",
        "City": "Aurora",
        "State": "NE",
        "Zip": "68818",
        "FullAddress": "2225 Q St., Aurora, NE 68818",
        "Category": "Corporate HQ",
        "FacilityName": "Aurora Corporate Office",
        "LongName": "Aurora Coop - NE, IA, KS, CO, TX",
        "MatchTier": "T3",
        "GeoSource": "FACILITY"
      }
    },
    {
      "type": "Feature",
      "geometry": {
        "type": "Point",
        "coordinates": [
          -88.286772,
          40.878709
        ]
      },
      "properties": {
        "Retailer": "B&D Chemical",
        "Suppliers": "",
        "ContactName": "Brandon Grubbs",
        "ContactTitle": "Owner",
        "Title": "Owner",
        "Email": "banddchemical@yahoo.com",
        "OfficePhone": "",
        "CellPhone": "815-674-6477",
        "Address": "33755 E. 1700 N. Rd.",
        "City": "Cullum",
        "State": "IL",
        "Zip": "60929",
        "FullAddress": "33755 E. 1700 N. Rd., Cullum, IL 60929",
        "Category": "Agronomy",
        "FacilityName": "",
        "LongName": "",
        "MatchTier": "TBD",
        "GeoSource": "MAPBOX"
      }
    },
    {
      "type": "Feature",
      "geometry": {
        "type": "Point",
        "coordinates": [
          -88.286772,
          40.878709
        ]
      },
      "properties": {
        "Retailer": "B&D Chemical",
        "Suppliers": "",
        "ContactName": "Bill Houck",
        "ContactTitle": "Sales Agron.",
        "Title": "Sales Agron.",
        "Email": "banddchemical@yahoo.com",
        "OfficePhone": "815-304-6687",
        "CellPhone": "636-856-3400",
        "Address": "33755 E. 1700 N. Rd.",
        "City": "Cullum",
        "State": "IL",
        "Zip": "60929",
        "FullAddress": "33755 E. 1700 N. Rd., Cullum, IL 60929",
        "Category": "Agronomy",
        "FacilityName": "",
        "LongName": "",
        "MatchTier": "TBD",
        "GeoSource": "MAPBOX"
      }
    },
    {
      "type": "Feature",
      "geometry": {
        "type": "Point",
        "coordinates": [
          -89.994004,
          39.891984
        ]
      },
      "properties": {
        "Retailer": "Brandt",
        "Suppliers": "",
        "ContactName": "Tim Greer",
        "ContactTitle": "Location Mgr.",
        "Title": "Location Mgr.",
        "Email": "tim.greer@brandt.co",
        "OfficePhone": "217-476-3438",
        "CellPhone": "",
        "Address": "32995 IL 135",
        "City": "Ashland",
        "State": "IL",
        "Zip": "62612",
        "FullAddress": "32995 IL 135, Ashland, IL 62612",
        "Category": "Agronomy",
        "FacilityName": "",
        "LongName": "",
        "MatchTier": "TBD",
        "GeoSource": "MAPBOX"
      }
    },
    {
      "type": "Feature",
      "geometry": {
        "type": "Point",
        "coordinates": [
          -89.963605,
          39.724754
        ]
      },
      "properties": {
        "Retailer": "Brandt",
        "Suppliers": "",
        "ContactName": "Pat Hermes",
        "ContactTitle": "Plant Manager",
        "Title": "Plant Manager",
        "Email": "pat.hermes@brandt.com",
        "OfficePhone": "217-488-3125",
        "CellPhone": "217-652-4555",
        "Address": "16714 Old Rt. 54",
        "City": "New Berlin",
        "State": "IL",
        "Zip": "62670",
        "FullAddress": "16714 Old Rt. 54, New Berlin, IL 62670",
        "Category": "Agronomy",
        "FacilityName": "",
        "LongName": "",
        "MatchTier": "TBD",
        "GeoSource": "MAPBOX"
      }
    },
    {
      "type": "Feature",
      "geometry": {
        "type": "Point",
        "coordinates": [
          -94.43828,
          43.82746
        ]
      },
      "properties": {
        "Retailer": "Central Farm Services",
        "Suppliers": "",
        "ContactName": "Tristan Wilmes",
        "ContactTitle": "VP Agronomy",
        "Title": "VP Agronomy",
        "Email": "twilmes@cfs.com",
        "OfficePhone": "507-776-2831",
        "CellPhone": "507-621-0243",
        "Address": "233 W. Ciro St.",
        "City": "Truman",
        "State": "MN",
        "Zip": "56088",
        "FullAddress": "233 W. Ciro St., Truman, MN 56088",
        "Category": "Agronomy",
        "FacilityName": "",
        "LongName": "",
        "MatchTier": "TBD",
        "GeoSource": "MAPBOX"
      }
    },
    {
      "type": "Feature",
      "geometry": {
        "type": "Point",
        "coordinates": [
          -97.834107,
          42.047016
        ]
      },
      "properties": {
        "Retailer": "Central Farmers Coop.",
        "Suppliers": "Winfield",
        "ContactName": "Jeff Schmiesing",
        "ContactTitle": "Agron. Dept. Mgr.",
        "Title": "Agron. Dept. Mgr.",
        "Email": "jschmiesing@cfc4ag.com",
        "OfficePhone": "605-940-7665",
        "CellPhone": "507-330-3418",
        "Address": "100 N Center St.",
        "City": "Tilden",
        "State": "NE",
        "Zip": "68781",
        "FullAddress": "100 N Center St., Tilden, NE 68781",
        "Category": "Agronomy",
        "FacilityName": "Tilden Agronomy",
        "LongName": "Central Farmers Cooperative - SD NE",
        "MatchTier": "T2",
        "GeoSource": "FACILITY"
      }
    },
    {
      "type": "Feature",
      "geometry": {
        "type": "Point",
        "coordinates": [
          -97.59198,
          40.89114
        ]
      },
      "properties": {
        "Retailer": "Central Valley Ag Coop.",
        "Suppliers": "Winfield",
        "ContactName": "Cary Skibinski",
        "ContactTitle": "Dir. Spec. Prod.",
        "Title": "Dir. Spec. Prod.",
        "Email": "cary.skibinski@cvacoop.com",
        "OfficePhone": "402-362-8454",
        "CellPhone": "402-710-0598",
        "Address": "2803 N. Nebraska Ave.",
        "City": "York",
        "State": "NE",
        "Zip": "68467",
        "FullAddress": "2803 N. Nebraska Ave., York, NE 68467",
        "Category": "Agronomy",
        "FacilityName": "",
        "LongName": "",
        "MatchTier": "TBD",
        "GeoSource": "MAPBOX"
      }
    },
    {
      "type": "Feature",
      "geometry": {
        "type": "Point",
        "coordinates": [
          -97.454633,
          40.896246
        ]
      },
      "properties": {
        "Retailer": "Central Valley Ag Coop.",
        "Suppliers": "Winfield",
        "ContactName": "Korbin Kudera",
        "ContactTitle": "Research Agron.",
        "Title": "Research Agron.",
        "Email": "korbin.kudera@cvacoop.com",
        "OfficePhone": "402-728-5252",
        "CellPhone": "402-270-2909",
        "Address": "1414 E. Ridge Road",
        "City": "Waco",
        "State": "NE",
        "Zip": "68460",
        "FullAddress": "1414 E. Ridge Road, Waco, NE 68460",
        "Category": "Agronomy",
        "FacilityName": "",
        "LongName": "",
        "MatchTier": "TBD",
        "GeoSource": "MAPBOX"
      }
    },
    {
      "type": "Feature",
      "geometry": {
        "type": "Point",
        "coordinates": [
          -96.224262,
          41.7665
        ]
      },
      "properties": {
        "Retailer": "Central Valley Ag Coop.",
        "Suppliers": "Winfield",
        "ContactName": "Brandt Anderson",
        "ContactTitle": "Location Mgr.",
        "Title": "Location Mgr.",
        "Email": "brandt.anderson@cvacoop.com",
        "OfficePhone": "402-374-2180",
        "CellPhone": "402-870-0224",
        "Address": "1421 B St. 0147",
        "City": "Tekamah",
        "State": "NE",
        "Zip": "68061",
        "FullAddress": "1421 B St. 0147, Tekamah, NE 68061",
        "Category": "Agronomy",
        "FacilityName": "",
        "LongName": "",
        "MatchTier": "TBD",
        "GeoSource": "MAPBOX"
      }
    },
    {
      "type": "Feature",
      "geometry": {
        "type": "Point",
        "coordinates": [
          -96.576286,
          43.61127
        ]
      },
      "properties": {
        "Retailer": "CHS - Brandon",
        "Suppliers": "CHS",
        "ContactName": "Tony Van Overscheide",
        "ContactTitle": "Agronomy Dept. Mgr.",
        "Title": "Agronomy Dept. Mgr.",
        "Email": "tony.vanoverscheide@chsinc.com",
        "OfficePhone": "",
        "CellPhone": "605-582-2415",
        "Address": "26027 482nd Ave.",
        "City": "Brandon",
        "State": "SD",
        "Zip": "57005",
        "FullAddress": "26027 482nd Ave., Brandon, SD 57005",
        "Category": "Corporate HQ",
        "FacilityName": "Brandon Main Office & Grain",
        "LongName": "CHS Brandon - SD MN NE",
        "MatchTier": "T2",
        "GeoSource": "FACILITY"
      }
    },
    {
      "type": "Feature",
      "geometry": {
        "type": "Point",
        "coordinates": [
          -97.533144,
          42.498573
        ]
      },
      "properties": {
        "Retailer": "CHS - RETAIL",
        "Suppliers": "CHS",
        "ContactName": "Erik Haglund",
        "ContactTitle": "Agron. Sales Mgr.",
        "Title": "Agron. Sales Mgr.",
        "Email": "erik.haglund@chsinc.com",
        "OfficePhone": "402-584-2272",
        "CellPhone": "",
        "Address": "809 Broadway St.",
        "City": "Wausa",
        "State": "NE",
        "Zip": "68786",
        "FullAddress": "809 Broadway St., Wausa, NE 68786",
        "Category": "Agronomy",
        "FacilityName": "",
        "LongName": "",
        "MatchTier": "TBD",
        "GeoSource": "MAPBOX"
      }
    },
    {
      "type": "Feature",
      "geometry": {
        "type": "Point",
        "coordinates": [
          -92.458197,
          43.996814
        ]
      },
      "properties": {
        "Retailer": "CHS - Rochester",
        "Suppliers": "CHS",
        "ContactName": "Aaron Ulland",
        "ContactTitle": "Sales Mgr.",
        "Title": "Sales Mgr.",
        "Email": "",
        "OfficePhone": "507-289-4086",
        "CellPhone": "507-226-5871",
        "Address": "73057 MN-16",
        "City": "Grand Meadow",
        "State": "MN",
        "Zip": "55936",
        "FullAddress": "73057 MN-16, Grand Meadow, MN 55936",
        "Category": "Corporate HQ",
        "FacilityName": "Rochester (Headquarters)",
        "LongName": "CHS Rochester - MN",
        "MatchTier": "T3",
        "GeoSource": "FACILITY"
      }
    },
    {
      "type": "Feature",
      "geometry": {
        "type": "Point",
        "coordinates": [
          -92.458197,
          43.996814
        ]
      },
      "properties": {
        "Retailer": "CHS - Rochester",
        "Suppliers": "CHS",
        "ContactName": "Rod Hart",
        "ContactTitle": "Agronomist",
        "Title": "Agronomist",
        "Email": "rod.hart@chsinc.com",
        "OfficePhone": "507-289-4086",
        "CellPhone": "507-259-3026",
        "Address": "23142 MN Hwy 74",
        "City": "St. Charles",
        "State": "MN",
        "Zip": "55972",
        "FullAddress": "23142 MN Hwy 74, St. Charles, MN 55972",
        "Category": "Corporate HQ",
        "FacilityName": "Rochester (Headquarters)",
        "LongName": "CHS Rochester - MN",
        "MatchTier": "T3",
        "GeoSource": "FACILITY"
      }
    },
    {
      "type": "Feature",
      "geometry": {
        "type": "Point",
        "coordinates": [
          -92.997117,
          44.043621
        ]
      },
      "properties": {
        "Retailer": "CHS - Rochester",
        "Suppliers": "CHS",
        "ContactName": "Gary Schmiesing",
        "ContactTitle": "Agronomist",
        "Title": "Agronomist",
        "Email": "gary.schmiesing@chsinc.com",
        "OfficePhone": "507-289-4086",
        "CellPhone": "507-330-3418",
        "Address": "135 W. Front St.",
        "City": "Claremont",
        "State": "MN",
        "Zip": "55924",
        "FullAddress": "135 W. Front St., Claremont, MN 55924",
        "Category": "Agronomy",
        "FacilityName": "CHS Rochester – Claremont Agronomy",
        "LongName": "CHS Rochester - MN",
        "MatchTier": "T1",
        "GeoSource": "FACILITY"
      }
    },
    {
      "type": "Feature",
      "geometry": {
        "type": "Point",
        "coordinates": [
          -88.429177,
          42.304346
        ]
      },
      "properties": {
        "Retailer": "Conserve FS",
        "Suppliers": "Growmark",
        "ContactName": "Adam Day",
        "ContactTitle": "Agron. Sales & Mkt, Mgr.",
        "Title": "Agron. Sales & Mkt, Mgr.",
        "Email": "aday@conservfs.com",
        "OfficePhone": "815-334-5931",
        "CellPhone": "815-529-1435",
        "Address": "1110 McConnell Rd.",
        "City": "Woodstock",
        "State": "IL",
        "Zip": "60098",
        "FullAddress": "1110 McConnell Rd., Woodstock, IL 60098",
        "Category": "Agronomy",
        "FacilityName": "",
        "LongName": "",
        "MatchTier": "TBD",
        "GeoSource": "MAPBOX"
      }
    },
    {
      "type": "Feature",
      "geometry": {
        "type": "Point",
        "coordinates": [
          -95.534534,
          43.410221
        ]
      },
      "properties": {
        "Retailer": "Cooperative Farmers Elevator",
        "Suppliers": "Winfield",
        "ContactName": "Dan Jacobsma",
        "ContactTitle": "Agronomy Manager",
        "Title": "Agronomy Manager",
        "Email": "djacobsma@coopfe.com",
        "OfficePhone": "712-758-3636",
        "CellPhone": "712-330-6144",
        "Address": "920 Main St",
        "City": "Ocheyedan",
        "State": "IA",
        "Zip": "51354",
        "FullAddress": "920 Main St, Ocheyedan, IA 51354",
        "Category": "Agronomy",
        "FacilityName": "",
        "LongName": "",
        "MatchTier": "TBD",
        "GeoSource": "MAPBOX"
      }
    },
    {
      "type": "Feature",
      "geometry": {
        "type": "Point",
        "coordinates": [
          -96.235883,
          43.279343
        ]
      },
      "properties": {
        "Retailer": "Cooperative Farmers Elevator",
        "Suppliers": "Winfield",
        "ContactName": "Jeff Blauwet",
        "ContactTitle": "Agron. Tech. Specialist",
        "Title": "Agron. Tech. Specialist",
        "Email": "jblauwet@coopfe.com",
        "OfficePhone": "712-758-3636",
        "CellPhone": "712-470-1416",
        "Address": "101 Main St.",
        "City": "Doon",
        "State": "IA",
        "Zip": "51235",
        "FullAddress": "101 Main St., Doon, IA 51235",
        "Category": "Agronomy",
        "FacilityName": "",
        "LongName": "",
        "MatchTier": "TBD",
        "GeoSource": "MAPBOX"
      }
    },
    {
      "type": "Feature",
      "geometry": {
        "type": "Point",
        "coordinates": [
          -98.355995,
          40.584384
        ]
      },
      "properties": {
        "Retailer": "Cooperative Producers, Inc.",
        "Suppliers": "Rosen's, Winfield, IAP",
        "ContactName": "Mike Battin",
        "ContactTitle": "VP of Agronomy",
        "Title": "VP of Agronomy",
        "Email": "mbattin@cpicoop.com",
        "OfficePhone": "402-463-5148",
        "CellPhone": "785-421-8327",
        "Address": "265 N. Showboat Blvd.",
        "City": "Hastings",
        "State": "NE",
        "Zip": "68901",
        "FullAddress": "265 N. Showboat Blvd., Hastings, NE 68901",
        "Category": "Agronomy",
        "FacilityName": "",
        "LongName": "",
        "MatchTier": "TBD",
        "GeoSource": "MAPBOX"
      }
    },
    {
      "type": "Feature",
      "geometry": {
        "type": "Point",
        "coordinates": [
          -98.355995,
          40.584384
        ]
      },
      "properties": {
        "Retailer": "Cooperative Producers, Inc.",
        "Suppliers": "Rosen's, Winfield, IAP",
        "ContactName": "Kevin Hoffschneider",
        "ContactTitle": "Procurement Strategy & Prod Mgr.",
        "Title": "Procurement Strategy & Prod Mgr.",
        "Email": "khoffschneider@cpicoop.com",
        "OfficePhone": "402-744-0090",
        "CellPhone": "308-750-7912",
        "Address": "265 N. Showboat Blvd.",
        "City": "Hastings",
        "State": "NE",
        "Zip": "68901",
        "FullAddress": "265 N. Showboat Blvd., Hastings, NE 68901",
        "Category": "Agronomy",
        "FacilityName": "",
        "LongName": "",
        "MatchTier": "TBD",
        "GeoSource": "MAPBOX"
      }
    },
    {
      "type": "Feature",
      "geometry": {
        "type": "Point",
        "coordinates": [
          -98.355995,
          40.584384
        ]
      },
      "properties": {
        "Retailer": "Cooperative Producers, Inc.",
        "Suppliers": "Rosen's, Winfield, IAP",
        "ContactName": "Chris Wagner",
        "ContactTitle": "",
        "Title": "",
        "Email": "cwagner@cpicoop.com",
        "OfficePhone": "402-744-7870",
        "CellPhone": "402-640-8344",
        "Address": "265 N. Showboat Blvd.",
        "City": "Hastings",
        "State": "NE",
        "Zip": "68901",
        "FullAddress": "265 N. Showboat Blvd., Hastings, NE 68901",
        "Category": "Agronomy",
        "FacilityName": "",
        "LongName": "",
        "MatchTier": "TBD",
        "GeoSource": "MAPBOX"
      }
    },
    {
      "type": "Feature",
      "geometry": {
        "type": "Point",
        "coordinates": [
          -100.16631,
          40.92926
        ]
      },
      "properties": {
        "Retailer": "Country Partners Coop.",
        "Suppliers": "Winfield",
        "ContactName": "Pete Cullan",
        "ContactTitle": "VP of Agronomy",
        "Title": "VP of Agronomy",
        "Email": "pcullan@countrypartnerscoop.com",
        "OfficePhone": "308-537-7141",
        "CellPhone": "308-530-5050",
        "Address": "120 8th St.",
        "City": "Gothenburg",
        "State": "NE",
        "Zip": "69138",
        "FullAddress": "120 8th St., Gothenburg, NE 69138",
        "Category": "Corporate HQ",
        "FacilityName": "Administrative Office",
        "LongName": "Country Partners Cooperative",
        "MatchTier": "T1",
        "GeoSource": "FACILITY"
      }
    },
    {
      "type": "Feature",
      "geometry": {
        "type": "Point",
        "coordinates": [
          -96.361022,
          43.084424
        ]
      },
      "properties": {
        "Retailer": "Countryside Ag Service",
        "Suppliers": "Rosen's, Winfield, Nutrien",
        "ContactName": "Randy Van Veldhuizen",
        "ContactTitle": "Owner",
        "Title": "Owner",
        "Email": "randyvanveld@gmail.com",
        "OfficePhone": "712-722-2675",
        "CellPhone": "712-441-5632",
        "Address": "2156 390th St.",
        "City": "Hawarden",
        "State": "IA",
        "Zip": "50123",
        "FullAddress": "2156 390th St., Hawarden, IA 50123",
        "Category": "Corporate HQ",
        "FacilityName": "Hawarden",
        "LongName": "Countryside Ag Service",
        "MatchTier": "T3",
        "GeoSource": "FACILITY"
      }
    },
    {
      "type": "Feature",
      "geometry": {
        "type": "Point",
        "coordinates": [
          -95.601818,
          41.851897
        ]
      },
      "properties": {
        "Retailer": "Farm Service Cooperative",
        "Suppliers": "Winfield, Rosen's",
        "ContactName": "Tyler Reimers",
        "ContactTitle": "Agron. Div. Mgr.",
        "Title": "Agron. Div. Mgr.",
        "Email": "tylerreimers@fscoop.com",
        "OfficePhone": "712-755-3185",
        "CellPhone": "",
        "Address": "2308 Pine St.",
        "City": "Harlan",
        "State": "IA",
        "Zip": "51537",
        "FullAddress": "2308 Pine St., Harlan, IA 51537",
        "Category": "Corporate HQ",
        "FacilityName": "Dunlap Corporate HQ",
        "LongName": "Farmers Service Cooperative – IA",
        "MatchTier": "T3",
        "GeoSource": "FACILITY"
      }
    },
    {
      "type": "Feature",
      "geometry": {
        "type": "Point",
        "coordinates": [
          -95.29728,
          41.64489
        ]
      },
      "properties": {
        "Retailer": "Farm Service Cooperative",
        "Suppliers": "Winfield, Rosen's",
        "ContactName": "James Klein",
        "ContactTitle": "Agron. Mgr.",
        "Title": "Agron. Mgr.",
        "Email": "jamesklein@fscoop.com",
        "OfficePhone": "712-755-3185",
        "CellPhone": "712-571-0349",
        "Address": "1421 HWY 44",
        "City": "Harlan",
        "State": "IA",
        "Zip": "51537",
        "FullAddress": "1421 HWY 44, Harlan, IA 51537",
        "Category": "Agronomy",
        "FacilityName": "Harlan Agronomy - Seed Treatment",
        "LongName": "Farmers Service Cooperative – IA",
        "MatchTier": "T1",
        "GeoSource": "FACILITY"
      }
    },
    {
      "type": "Feature",
      "geometry": {
        "type": "Point",
        "coordinates": [
          -97.598207,
          41.999513
        ]
      },
      "properties": {
        "Retailer": "Farmers Pride Coop.",
        "Suppliers": "Winfield",
        "ContactName": "Bryan Hoffman",
        "ContactTitle": "Agron. Dept. Mgr.",
        "Title": "Agron. Dept. Mgr.",
        "Email": "bhoffman@farmerspride.com",
        "OfficePhone": "402-675-2375",
        "CellPhone": "",
        "Address": "83755 S. Hwy. 121",
        "City": "Battle Creek",
        "State": "NE",
        "Zip": "68715",
        "FullAddress": "83755 S. Hwy. 121, Battle Creek, NE 68715",
        "Category": "Agronomy",
        "FacilityName": "",
        "LongName": "",
        "MatchTier": "TBD",
        "GeoSource": "MAPBOX"
      }
    },
    {
      "type": "Feature",
      "geometry": {
        "type": "Point",
        "coordinates": [
          -91.947376,
          41.363035
        ]
      },
      "properties": {
        "Retailer": "FCA Vision Ag",
        "Suppliers": "Nutrien, Winfield",
        "ContactName": "Ellie Bell",
        "ContactTitle": "Mkting Mgr.",
        "Title": "Mkting Mgr.",
        "Email": "ebell@keotafarmerscoop.com",
        "OfficePhone": "641-636-3748",
        "CellPhone": "",
        "Address": "110 S. Keokuk Washington Rd.",
        "City": "Keota",
        "State": "IA",
        "Zip": "52248",
        "FullAddress": "110 S. Keokuk Washington Rd., Keota, IA 52248",
        "Category": "Corporate HQ",
        "FacilityName": "Keota (Co-op HQ)",
        "LongName": "FCA Vision Ag - IA",
        "MatchTier": "T1",
        "GeoSource": "FACILITY"
      }
    },
    {
      "type": "Feature",
      "geometry": {
        "type": "Point",
        "coordinates": [
          -96.179925,
          43.079314
        ]
      },
      "properties": {
        "Retailer": "FCS, Inc",
        "Suppliers": "Nutrien, Winfield, Rosen's",
        "ContactName": "Kris Norgaard",
        "ContactTitle": "Sr. Dir. Agron.",
        "Title": "Sr. Dir. Agron.",
        "Email": "kris@farmerscoopsociety.com",
        "OfficePhone": "712-722-2671",
        "CellPhone": "",
        "Address": "City Center",
        "City": "Sioux Center",
        "State": "IA",
        "Zip": "51250",
        "FullAddress": "City Center, Sioux Center, IA 51250",
        "Category": "Corporate HQ",
        "FacilityName": "FCS - Sioux Center (HQ branch)",
        "LongName": "Farmers Coop Society - IA SD",
        "MatchTier": "T2",
        "GeoSource": "FACILITY"
      }
    },
    {
      "type": "Feature",
      "geometry": {
        "type": "Point",
        "coordinates": [
          -95.658982,
          43.180248
        ]
      },
      "properties": {
        "Retailer": "FCS, Inc",
        "Suppliers": "Nutrien, Winfield, Rosen's",
        "ContactName": "Ben VanBeek",
        "ContactTitle": "Agronomy Mgr.",
        "Title": "Agronomy Mgr.",
        "Email": "ben@farmerscoopsociety.com",
        "OfficePhone": "712-722-2671",
        "CellPhone": "712-729-3205",
        "Address": "City Center",
        "City": "Sanborn",
        "State": "IA",
        "Zip": "51248",
        "FullAddress": "City Center, Sanborn, IA 51248",
        "Category": "Grain/Feed",
        "FacilityName": "FCS - Sanborn branch",
        "LongName": "Farmers Coop Society - IA SD",
        "MatchTier": "T2",
        "GeoSource": "FACILITY"
      }
    },
    {
      "type": "Feature",
      "geometry": {
        "type": "Point",
        "coordinates": [
          -101.64259,
          40.51329
        ]
      },
      "properties": {
        "Retailer": "Frenchman Valley Coop.",
        "Suppliers": "Winfield",
        "ContactName": "Jeff Wessels",
        "ContactTitle": "VP of Agronomy",
        "Title": "VP of Agronomy",
        "Email": "jrwessels@fvcoop.net",
        "OfficePhone": "",
        "CellPhone": "308-655-0638",
        "Address": "32946 Nebraska 23",
        "City": "Grant",
        "State": "NE",
        "Zip": "69140",
        "FullAddress": "32946 Nebraska 23, Grant, NE 69140",
        "Category": "Corporate HQ",
        "FacilityName": "Imperial – Corporate HQ / Main Office",
        "LongName": "Frenchman Valley Coop - NE",
        "MatchTier": "T3",
        "GeoSource": "FACILITY"
      }
    },
    {
      "type": "Feature",
      "geometry": {
        "type": "Point",
        "coordinates": [
          -101.64259,
          40.51329
        ]
      },
      "properties": {
        "Retailer": "Frenchman Valley Coop.",
        "Suppliers": "Winfield",
        "ContactName": "Bryan Kopriva",
        "ContactTitle": "Agron Asst.",
        "Title": "Agron Asst.",
        "Email": "bkopriva@fvcoop.net",
        "OfficePhone": "",
        "CellPhone": "308-882-8425",
        "Address": "32946 Nebraska 23",
        "City": "Grant",
        "State": "NE",
        "Zip": "69140",
        "FullAddress": "32946 Nebraska 23, Grant, NE 69140",
        "Category": "Corporate HQ",
        "FacilityName": "Imperial – Corporate HQ / Main Office",
        "LongName": "Frenchman Valley Coop - NE",
        "MatchTier": "T3",
        "GeoSource": "FACILITY"
      }
    },
    {
      "type": "Feature",
      "geometry": {
        "type": "Point",
        "coordinates": [
          -101.64259,
          40.51329
        ]
      },
      "properties": {
        "Retailer": "Frenchman Valley Coop.",
        "Suppliers": "Winfield",
        "ContactName": "Luke Korf",
        "ContactTitle": "Agron./Prod. Advisor",
        "Title": "Agron./Prod. Advisor",
        "Email": "lkorf@fvcoop.net",
        "OfficePhone": "",
        "CellPhone": "308-353-7838",
        "Address": "32946 Nebraska 23",
        "City": "Grant",
        "State": "NE",
        "Zip": "69140",
        "FullAddress": "32946 Nebraska 23, Grant, NE 69140",
        "Category": "Corporate HQ",
        "FacilityName": "Imperial – Corporate HQ / Main Office",
        "LongName": "Frenchman Valley Coop - NE",
        "MatchTier": "T3",
        "GeoSource": "FACILITY"
      }
    },
    {
      "type": "Feature",
      "geometry": {
        "type": "Point",
        "coordinates": [
          -96.680629,
          40.835731
        ]
      },
      "properties": {
        "Retailer": "Frontier Coop",
        "Suppliers": "Winfield",
        "ContactName": "Dave Reese",
        "ContactTitle": "VP of Agronomy",
        "Title": "VP of Agronomy",
        "Email": "dave.reese@frontiercooperative.com",
        "OfficePhone": "402-937-1800",
        "CellPhone": "402-209-0855",
        "Address": "3333 Landmark Cir.",
        "City": "Lincoln",
        "State": "NE",
        "Zip": "68504",
        "FullAddress": "3333 Landmark Cir.,Lincoln, NE 68504",
        "Category": "Grain/Feed",
        "FacilityName": "Lincoln Grain Elevator",
        "LongName": "Frontier Cooperative - NE",
        "MatchTier": "T2",
        "GeoSource": "FACILITY"
      }
    },
    {
      "type": "Feature",
      "geometry": {
        "type": "Point",
        "coordinates": [
          -96.680629,
          40.835731
        ]
      },
      "properties": {
        "Retailer": "Frontier Coop",
        "Suppliers": "Winfield",
        "ContactName": "Jason Penlerick",
        "ContactTitle": "CP & Seed Procurement Mgr.",
        "Title": "CP & Seed Procurement Mgr.",
        "Email": "jason.penlerick@frontiercooperative.com",
        "OfficePhone": "402-937-8052",
        "CellPhone": "402-480-0113",
        "Address": "3333 Landmark Cir.",
        "City": "Lincoln",
        "State": "NE",
        "Zip": "68504",
        "FullAddress": "3333 Landmark Cir.,Lincoln, NE 68504",
        "Category": "Grain/Feed",
        "FacilityName": "Lincoln Grain Elevator",
        "LongName": "Frontier Cooperative - NE",
        "MatchTier": "T2",
        "GeoSource": "FACILITY"
      }
    },
    {
      "type": "Feature",
      "geometry": {
        "type": "Point",
        "coordinates": [
          -89.643089,
          42.296002
        ]
      },
      "properties": {
        "Retailer": "Growmark - RETAIL",
        "Suppliers": "Growmark",
        "ContactName": "Patrick Lind",
        "ContactTitle": "Area Sales Mgr.",
        "Title": "Area Sales Mgr.",
        "Email": "plind@growmark.com",
        "OfficePhone": "",
        "CellPhone": "815-656-0730",
        "Address": "22 N. Mernitz Ave.",
        "City": "Freeport",
        "State": "IL",
        "Zip": "61032",
        "FullAddress": "22 N. Mernitz Ave., Freeport, IL 61032",
        "Category": "Agronomy",
        "FacilityName": "",
        "LongName": "",
        "MatchTier": "TBD",
        "GeoSource": "MAPBOX"
      }
    },
    {
      "type": "Feature",
      "geometry": {
        "type": "Point",
        "coordinates": [
          -88.647841,
          40.241372
        ]
      },
      "properties": {
        "Retailer": "Growmark - RETAIL",
        "Suppliers": "Growmark",
        "ContactName": "Barry Soliday",
        "ContactTitle": "Area Sales Mgr.",
        "Title": "Area Sales Mgr.",
        "Email": "bsoliday@growmark.com",
        "OfficePhone": "",
        "CellPhone": "217-871-1662",
        "Address": "406 Washington St.",
        "City": "Farmer City",
        "State": "IL",
        "Zip": "61842",
        "FullAddress": "406 Washington St., Farmer City, IL 61842",
        "Category": "Agronomy",
        "FacilityName": "",
        "LongName": "",
        "MatchTier": "TBD",
        "GeoSource": "MAPBOX"
      }
    },
    {
      "type": "Feature",
      "geometry": {
        "type": "Point",
        "coordinates": [
          -88.82251,
          37.720477
        ]
      },
      "properties": {
        "Retailer": "Growmark - RETAIL",
        "Suppliers": "Growmark",
        "ContactName": "Steve Westrich",
        "ContactTitle": "Area Sales Mgr.",
        "Title": "Area Sales Mgr.",
        "Email": "swestrich@growmark.com",
        "OfficePhone": "",
        "CellPhone": "618-527-9111",
        "Address": "8681 Valley View Rd.",
        "City": "Marion",
        "State": "IL",
        "Zip": "62959",
        "FullAddress": "8681 Valley View Rd., Marion, IL 62959",
        "Category": "Agronomy",
        "FacilityName": "",
        "LongName": "",
        "MatchTier": "TBD",
        "GeoSource": "MAPBOX"
      }
    },
    {
      "type": "Feature",
      "geometry": {
        "type": "Point",
        "coordinates": [
          -88.088038,
          38.72929
        ]
      },
      "properties": {
        "Retailer": "Growmark - RETAIL",
        "Suppliers": "Growmark",
        "ContactName": "Brett Isley",
        "ContactTitle": "Area Sales Mgr.",
        "Title": "Area Sales Mgr.",
        "Email": "bisley@growmark.com",
        "OfficePhone": "",
        "CellPhone": "217-248-5992",
        "Address": "209 S. Camp St. Apt. 4",
        "City": "Olney",
        "State": "IL",
        "Zip": "62450",
        "FullAddress": "209 S. Camp St. Apt. 4, Olney, IL 62450",
        "Category": "Agronomy",
        "FacilityName": "",
        "LongName": "",
        "MatchTier": "TBD",
        "GeoSource": "MAPBOX"
      }
    },
    {
      "type": "Feature",
      "geometry": {
        "type": "Point",
        "coordinates": [
          -92.88037,
          41.63613
        ]
      },
      "properties": {
        "Retailer": "Growmark - RETAIL",
        "Suppliers": "Growmark",
        "ContactName": "Jason Schnell",
        "ContactTitle": "Area Sales Mgr.",
        "Title": "Area Sales Mgr.",
        "Email": "jschnell@growmark.com",
        "OfficePhone": "",
        "CellPhone": "641-521-7064",
        "Address": "5636 E. 108 St. S.",
        "City": "Sully",
        "State": "IA",
        "Zip": "50251",
        "FullAddress": "5636 E. 108 St. S., Sully, IA 50251",
        "Category": "Agronomy",
        "FacilityName": "",
        "LongName": "",
        "MatchTier": "TBD",
        "GeoSource": "MAPBOX"
      }
    },
    {
      "type": "Feature",
      "geometry": {
        "type": "Point",
        "coordinates": [
          -87.976961,
          39.309413
        ]
      },
      "properties": {
        "Retailer": "Heartland Ag Inc.",
        "Suppliers": "KOVA",
        "ContactName": "Jim Wiley",
        "ContactTitle": "Sales Rep.",
        "Title": "Sales Rep.",
        "Email": "jwiley@joink.com",
        "OfficePhone": "",
        "CellPhone": "217-343-6311",
        "Address": "500 NE 15th St.",
        "City": "Casey",
        "State": "IL",
        "Zip": "62420",
        "FullAddress": "500 NE 15th St., Casey, IL 62420",
        "Category": "Agronomy",
        "FacilityName": "",
        "LongName": "",
        "MatchTier": "TBD",
        "GeoSource": "MAPBOX"
      }
    },
    {
      "type": "Feature",
      "geometry": {
        "type": "Point",
        "coordinates": [
          -95.855064,
          40.676609
        ]
      },
      "properties": {
        "Retailer": "Heartland Coop",
        "Suppliers": "Nutrien",
        "ContactName": "Jeff Linder",
        "ContactTitle": "Location Manager / Agronomy Lead",
        "Title": "Location Manager / Agronomy Lead",
        "Email": "jlinden@heartlandcoop.com",
        "OfficePhone": "",
        "CellPhone": "",
        "Address": "City Center",
        "City": "Nebraska City",
        "State": "NE",
        "Zip": "68410",
        "FullAddress": "City Center, Nebraska City, NE 68410",
        "Category": "Grain/Feed",
        "FacilityName": "Nebraska City",
        "LongName": "Heartland Co-op - IA NE TX",
        "MatchTier": "T2",
        "GeoSource": "FACILITY"
      }
    },
    {
      "type": "Feature",
      "geometry": {
        "type": "Point",
        "coordinates": [
          -95.855064,
          40.676609
        ]
      },
      "properties": {
        "Retailer": "Heartland Coop",
        "Suppliers": "Nutrien",
        "ContactName": "Shawn Bissell",
        "ContactTitle": "Grain Superintendent / Ops",
        "Title": "Grain Superintendent / Ops",
        "Email": "sbissell@heartlandcoop.com",
        "OfficePhone": "",
        "CellPhone": "",
        "Address": "City Center",
        "City": "Auburn",
        "State": "NE",
        "Zip": "58305",
        "FullAddress": "City Center, Auburn, NE 58305",
        "Category": "Grain/Feed",
        "FacilityName": "Nebraska City",
        "LongName": "Heartland Co-op - IA NE TX",
        "MatchTier": "T3",
        "GeoSource": "FACILITY"
      }
    },
    {
      "type": "Feature",
      "geometry": {
        "type": "Point",
        "coordinates": [
          -95.855064,
          40.676609
        ]
      },
      "properties": {
        "Retailer": "Heartland Coop",
        "Suppliers": "Nutrien",
        "ContactName": "Eric Finch",
        "ContactTitle": "Regional Operations Manager",
        "Title": "Regional Operations Manager",
        "Email": "efinch@heartlandcoop.com",
        "OfficePhone": "",
        "CellPhone": "",
        "Address": "City Center",
        "City": "Omaha",
        "State": "NE",
        "Zip": "68101",
        "FullAddress": "City Center, Omaha, NE 68101",
        "Category": "Grain/Feed",
        "FacilityName": "Nebraska City",
        "LongName": "Heartland Co-op - IA NE TX",
        "MatchTier": "T3",
        "GeoSource": "FACILITY"
      }
    },
    {
      "type": "Feature",
      "geometry": {
        "type": "Point",
        "coordinates": [
          -93.80747,
          41.60122
        ]
      },
      "properties": {
        "Retailer": "Heartland Coop.",
        "Suppliers": "Nutrien",
        "ContactName": "Monte Van Wyk",
        "ContactTitle": "Dir. of Agron.",
        "Title": "Dir. of Agron.",
        "Email": "mvanwyk@heartlandcoop.com",
        "OfficePhone": "515-225-1334",
        "CellPhone": "515-975-6154",
        "Address": "13733 University Ave",
        "City": "Clive",
        "State": "IA",
        "Zip": "50325",
        "FullAddress": "13733 University Ave, Clive, IA 50325",
        "Category": "Corporate HQ",
        "FacilityName": "Administrative HQ",
        "LongName": "Heartland Co-op - IA NE TX",
        "MatchTier": "T1",
        "GeoSource": "FACILITY"
      }
    },
    {
      "type": "Feature",
      "geometry": {
        "type": "Point",
        "coordinates": [
          -93.80747,
          41.60122
        ]
      },
      "properties": {
        "Retailer": "Heartland Coop.",
        "Suppliers": "Nutrien",
        "ContactName": "Dave Coppess",
        "ContactTitle": "VP Sales & Marketing",
        "Title": "VP Sales & Marketing",
        "Email": "dcoppess@heartlandcoop.com",
        "OfficePhone": "515-225-1334",
        "CellPhone": "515-314-1414",
        "Address": "13733 University Ave",
        "City": "Clive",
        "State": "IA",
        "Zip": "50325",
        "FullAddress": "13733 University Ave, Clive, IA 50325",
        "Category": "Corporate HQ",
        "FacilityName": "Administrative HQ",
        "LongName": "Heartland Co-op - IA NE TX",
        "MatchTier": "T1",
        "GeoSource": "FACILITY"
      }
    },
    {
      "type": "Feature",
      "geometry": {
        "type": "Point",
        "coordinates": [
          -93.80747,
          41.60122
        ]
      },
      "properties": {
        "Retailer": "Heartland Coop.",
        "Suppliers": "Nutrien",
        "ContactName": "Craig Orr",
        "ContactTitle": "Director Market Development",
        "Title": "Director Market Development",
        "Email": "corr@heartlandcoop.com",
        "OfficePhone": "515-225-1334",
        "CellPhone": "515-321-2416",
        "Address": "13733 University Ave",
        "City": "Clive",
        "State": "IA",
        "Zip": "50325",
        "FullAddress": "13733 University Ave, Clive, IA 50325",
        "Category": "Corporate HQ",
        "FacilityName": "Administrative HQ",
        "LongName": "Heartland Co-op - IA NE TX",
        "MatchTier": "T1",
        "GeoSource": "FACILITY"
      }
    },
    {
      "type": "Feature",
      "geometry": {
        "type": "Point",
        "coordinates": [
          -93.80747,
          41.60122
        ]
      },
      "properties": {
        "Retailer": "Heartland Coop.",
        "Suppliers": "Nutrien",
        "ContactName": "Brett Schnathorst",
        "ContactTitle": "Location Manager",
        "Title": "Location Manager",
        "Email": "bschnathorst@heartlandcoop.com",
        "OfficePhone": "641-752-2418",
        "CellPhone": "641-485-7006",
        "Address": "1001 E Main St",
        "City": "Marshalltown",
        "State": "IA",
        "Zip": "50158",
        "FullAddress": "1001 E Main St, Marshalltown, IA 50158",
        "Category": "Corporate HQ",
        "FacilityName": "Administrative HQ",
        "LongName": "Heartland Co-op - IA NE TX",
        "MatchTier": "T3",
        "GeoSource": "FACILITY"
      }
    },
    {
      "type": "Feature",
      "geometry": {
        "type": "Point",
        "coordinates": [
          -92.31702,
          42.00763
        ]
      },
      "properties": {
        "Retailer": "Heartland Coop.",
        "Suppliers": "Nutrien",
        "ContactName": "Mark Toennies",
        "ContactTitle": "Location Manager",
        "Title": "Location Manager",
        "Email": "mtoennies@heartlandcoop.com",
        "OfficePhone": "319-439-5382",
        "CellPhone": "319-231-6569",
        "Address": "207 Railway St",
        "City": "Elberon",
        "State": "IA",
        "Zip": "52225",
        "FullAddress": "207 Railway St, Elberon, IA 52225",
        "Category": "Grain/Feed",
        "FacilityName": "Elberon",
        "LongName": "Heartland Co-op - IA NE TX",
        "MatchTier": "T2",
        "GeoSource": "FACILITY"
      }
    },
    {
      "type": "Feature",
      "geometry": {
        "type": "Point",
        "coordinates": [
          -95.61916,
          41.446804
        ]
      },
      "properties": {
        "Retailer": "Heartland Coop.",
        "Suppliers": "Nutrien",
        "ContactName": "Brian Tomasek",
        "ContactTitle": "Location Manager",
        "Title": "Location Manager",
        "Email": "btomasek@heartlandcoop.com",
        "OfficePhone": "712-485-8080",
        "CellPhone": "712-355-4321",
        "Address": "501 Front St",
        "City": "Neola",
        "State": "IA",
        "Zip": "51559",
        "FullAddress": "501 Front St, Neola, IA 51559",
        "Category": "Grain/Feed",
        "FacilityName": "Neola",
        "LongName": "Heartland Co-op - IA NE TX",
        "MatchTier": "T1",
        "GeoSource": "FACILITY"
      }
    },
    {
      "type": "Feature",
      "geometry": {
        "type": "Point",
        "coordinates": [
          -93.80747,
          41.60122
        ]
      },
      "properties": {
        "Retailer": "Heartland Coop.",
        "Suppliers": "Nutrien",
        "ContactName": "Larry Hansen",
        "ContactTitle": "Location Manager",
        "Title": "Location Manager",
        "Email": "lhansen@heartlandcoop.com",
        "OfficePhone": "641-473-2640",
        "CellPhone": "641-751-9049",
        "Address": "509 A Ave",
        "City": "Haverhill",
        "State": "IA",
        "Zip": "50120",
        "FullAddress": "509 A Ave, Haverhill, IA 50120",
        "Category": "Corporate HQ",
        "FacilityName": "Administrative HQ",
        "LongName": "Heartland Co-op - IA NE TX",
        "MatchTier": "T3",
        "GeoSource": "FACILITY"
      }
    },
    {
      "type": "Feature",
      "geometry": {
        "type": "Point",
        "coordinates": [
          -92.55518,
          41.705622
        ]
      },
      "properties": {
        "Retailer": "Heartland Coop.",
        "Suppliers": "Nutrien",
        "ContactName": "Charlie White",
        "ContactTitle": "Location Manager",
        "Title": "Location Manager",
        "Email": "cwhite@heartlandcoop.com",
        "OfficePhone": "641-528-2535",
        "CellPhone": "641-990-5912",
        "Address": "107 2nd St",
        "City": "Malcom",
        "State": "IA",
        "Zip": "50157",
        "FullAddress": "107 2nd St, Malcom, IA 50157",
        "Category": "Grain/Feed",
        "FacilityName": "Malcom",
        "LongName": "Heartland Co-op - IA NE TX",
        "MatchTier": "T1",
        "GeoSource": "FACILITY"
      }
    },
    {
      "type": "Feature",
      "geometry": {
        "type": "Point",
        "coordinates": [
          -93.80747,
          41.60122
        ]
      },
      "properties": {
        "Retailer": "Heartland Coop.",
        "Suppliers": "Nutrien",
        "ContactName": "Jonathan Struthers",
        "ContactTitle": "Location Manager",
        "Title": "Location Manager",
        "Email": "jstruthers@heartlandcoop.com",
        "OfficePhone": "641-227-3231",
        "CellPhone": "641-831-6143",
        "Address": "407 E Maple St",
        "City": "Baxter",
        "State": "IA",
        "Zip": "50028",
        "FullAddress": "407 E Maple St, Baxter, IA 50028",
        "Category": "Corporate HQ",
        "FacilityName": "Administrative HQ",
        "LongName": "Heartland Co-op - IA NE TX",
        "MatchTier": "T3",
        "GeoSource": "FACILITY"
      }
    },
    {
      "type": "Feature",
      "geometry": {
        "type": "Point",
        "coordinates": [
          -93.7672,
          41.59779
        ]
      },
      "properties": {
        "Retailer": "HELENA - RETAIL",
        "Suppliers": "Helena",
        "ContactName": "John Walter",
        "ContactTitle": "MidWest Division Mgr.",
        "Title": "MidWest Division Mgr.",
        "Email": "walterj@helenaagri.com",
        "OfficePhone": "515-309-3461",
        "CellPhone": "515-650-7986",
        "Address": "4546 Corporate Dr. Ste 170",
        "City": "West Des Moines",
        "State": "IA",
        "Zip": "50266",
        "FullAddress": "4546 Corporate Dr. Ste 170, West Des Moines, IA 50266",
        "Category": "Corporate HQ",
        "FacilityName": "West Central Division Office",
        "LongName": "Helena Agri-Enterprises - IA",
        "MatchTier": "T2",
        "GeoSource": "FACILITY"
      }
    },
    {
      "type": "Feature",
      "geometry": {
        "type": "Point",
        "coordinates": [
          -93.7672,
          41.59779
        ]
      },
      "properties": {
        "Retailer": "HELENA - RETAIL",
        "Suppliers": "Helena",
        "ContactName": "Dustin Smith",
        "ContactTitle": "East Sales Manager",
        "Title": "East Sales Manager",
        "Email": "smithd@helenaagri.com",
        "OfficePhone": "",
        "CellPhone": "360-223-5463",
        "Address": "4546 Corporate Dr. Ste 170",
        "City": "West Des Moines",
        "State": "IA",
        "Zip": "50266",
        "FullAddress": "4546 Corporate Dr. Ste 170, West Des Moines, IA 50266",
        "Category": "Corporate HQ",
        "FacilityName": "West Central Division Office",
        "LongName": "Helena Agri-Enterprises - IA",
        "MatchTier": "T2",
        "GeoSource": "FACILITY"
      }
    },
    {
      "type": "Feature",
      "geometry": {
        "type": "Point",
        "coordinates": [
          -88.40496,
          39.52165
        ]
      },
      "properties": {
        "Retailer": "HELENA - RETAIL",
        "Suppliers": "Helena",
        "ContactName": "Joel McCormick",
        "ContactTitle": "AIGRIntelligence Product Mgr.",
        "Title": "AIGRIntelligence Product Mgr.",
        "Email": "mccormickj@helenaagri.com",
        "OfficePhone": "515-267-0530",
        "CellPhone": "309-645-5190",
        "Address": "600 N. Fairground Way",
        "City": "elmwood",
        "State": "IL",
        "Zip": "61529",
        "FullAddress": "600 N. Fairground Way, elmwood, IL 61529",
        "Category": "Agronomy",
        "FacilityName": "Mattoon (Retail)",
        "LongName": "Helena Agri-Enterprises - IL",
        "MatchTier": "T3",
        "GeoSource": "FACILITY"
      }
    },
    {
      "type": "Feature",
      "geometry": {
        "type": "Point",
        "coordinates": [
          -85.444324,
          40.89624
        ]
      },
      "properties": {
        "Retailer": "HELENA - RETAIL",
        "Suppliers": "Helena",
        "ContactName": "Aaron Webster",
        "ContactTitle": "North Central Division Mgr.",
        "Title": "North Central Division Mgr.",
        "Email": "ebstera@helenaagri.com",
        "OfficePhone": "317-815-6370",
        "CellPhone": "859-242-0683",
        "Address": "11711 N. Pennsylvania St. Ste 270",
        "City": "Carmel",
        "State": "IN",
        "Zip": "46032",
        "FullAddress": "11711 N. Pennsylvania St. Ste 270, Carmel, IN 46032",
        "Category": "Corporate HQ",
        "FacilityName": "Huntington Terminal",
        "LongName": "Helena Agri-Enterprises - IN",
        "MatchTier": "T3",
        "GeoSource": "FACILITY"
      }
    },
    {
      "type": "Feature",
      "geometry": {
        "type": "Point",
        "coordinates": [
          -87.13141,
          37.757782
        ]
      },
      "properties": {
        "Retailer": "HELENA - RETAIL",
        "Suppliers": "Helena",
        "ContactName": "Joel Mattingly",
        "ContactTitle": "NCD South - AGRIntelligence Agronomist",
        "Title": "NCD South - AGRIntelligence Agronomist",
        "Email": "mattinglyij@helenaagri.com",
        "OfficePhone": "",
        "CellPhone": "270-302-5015",
        "Address": "1572 Oak Park Dr.",
        "City": "Owensboro",
        "State": "KY",
        "Zip": "42301",
        "FullAddress": "1572 Oak Park Dr., Owensboro, KY 42301",
        "Category": "Agronomy",
        "FacilityName": "",
        "LongName": "",
        "MatchTier": "TBD",
        "GeoSource": "MAPBOX"
      }
    },
    {
      "type": "Feature",
      "geometry": {
        "type": "Point",
        "coordinates": [
          -85.444324,
          40.89624
        ]
      },
      "properties": {
        "Retailer": "HELENA - RETAIL",
        "Suppliers": "Helena",
        "ContactName": "Kyle Krieger",
        "ContactTitle": "NCD South - AGRIntelligence Info. Spec.",
        "Title": "NCD South - AGRIntelligence Info. Spec.",
        "Email": "kriegerk@helenaagri.com",
        "OfficePhone": "",
        "CellPhone": "270-231-4984",
        "Address": "8314 Cox Rd. N",
        "City": "Mt. Vernon",
        "State": "IN",
        "Zip": "47620",
        "FullAddress": "8314 Cox Rd. N, Mt. Vernon, IN 47620",
        "Category": "Corporate HQ",
        "FacilityName": "Huntington Terminal",
        "LongName": "Helena Agri-Enterprises - IN",
        "MatchTier": "T3",
        "GeoSource": "FACILITY"
      }
    },
    {
      "type": "Feature",
      "geometry": {
        "type": "Point",
        "coordinates": [
          -83.551997,
          41.362678
        ]
      },
      "properties": {
        "Retailer": "HELENA - RETAIL",
        "Suppliers": "Helena",
        "ContactName": "Aaron Siebeneck",
        "ContactTitle": "NCD North - AGRIntelligence Info. Spec.",
        "Title": "NCD North - AGRIntelligence Info. Spec.",
        "Email": "asiebenecka@helenaagri.com",
        "OfficePhone": "",
        "CellPhone": "419-890-2397",
        "Address": "16851 Rd. J",
        "City": "Ottawa",
        "State": "OH",
        "Zip": "45875",
        "FullAddress": "16851 Rd. J, Ottawa, OH 45875",
        "Category": "Corporate HQ",
        "FacilityName": "Bowling Green Wholesale",
        "LongName": "Helena Agri-Enterprises - OH",
        "MatchTier": "T3",
        "GeoSource": "FACILITY"
      }
    },
    {
      "type": "Feature",
      "geometry": {
        "type": "Point",
        "coordinates": [
          -88.40496,
          39.52165
        ]
      },
      "properties": {
        "Retailer": "HELENA - RETAIL",
        "Suppliers": "Helena",
        "ContactName": "Randy Stephens",
        "ContactTitle": "Sales Manager",
        "Title": "Sales Manager",
        "Email": "stevensr@helenaagri.com",
        "OfficePhone": "217-382-4241",
        "CellPhone": "",
        "Address": "9666 Angling Rd.",
        "City": "Martinsville",
        "State": "IL",
        "Zip": "62441",
        "FullAddress": "9666 Angling Rd., Martinsville, IL 62441",
        "Category": "Agronomy",
        "FacilityName": "Mattoon (Retail)",
        "LongName": "Helena Agri-Enterprises - IL",
        "MatchTier": "T3",
        "GeoSource": "FACILITY"
      }
    },
    {
      "type": "Feature",
      "geometry": {
        "type": "Point",
        "coordinates": [
          -90.561776,
          39.80928
        ]
      },
      "properties": {
        "Retailer": "HELENA - RETAIL",
        "Suppliers": "Helena",
        "ContactName": "Jason Smith",
        "ContactTitle": "Operations Mgr.",
        "Title": "Operations Mgr.",
        "Email": "smithjason@helenaagri.com",
        "OfficePhone": "217-584-1133",
        "CellPhone": "217-204-8197",
        "Address": "1992 Old Grace Rd.",
        "City": "Meredosia",
        "State": "IL",
        "Zip": "62665",
        "FullAddress": "1992 Old Grace Rd., Meredosia, IL 62665",
        "Category": "Agronomy",
        "FacilityName": "Meredosia Agronomy",
        "LongName": "Helena Agri-Enterprises - IL",
        "MatchTier": "T1",
        "GeoSource": "FACILITY"
      }
    },
    {
      "type": "Feature",
      "geometry": {
        "type": "Point",
        "coordinates": [
          -88.40496,
          39.52165
        ]
      },
      "properties": {
        "Retailer": "HELENA - RETAIL",
        "Suppliers": "Helena",
        "ContactName": "Todd Boers",
        "ContactTitle": "Prod. Mgr.",
        "Title": "Prod. Mgr.",
        "Email": "",
        "OfficePhone": "",
        "CellPhone": "309-854-2912",
        "Address": "25449 N. 1200 Ave.",
        "City": "Kewanee",
        "State": "IL",
        "Zip": "61443",
        "FullAddress": "25449 N. 1200 Ave., Kewanee, IL 61443",
        "Category": "Agronomy",
        "FacilityName": "Mattoon (Retail)",
        "LongName": "Helena Agri-Enterprises - IL",
        "MatchTier": "T3",
        "GeoSource": "FACILITY"
      }
    },
    {
      "type": "Feature",
      "geometry": {
        "type": "Point",
        "coordinates": [
          -88.40496,
          39.52165
        ]
      },
      "properties": {
        "Retailer": "HELENA - RETAIL",
        "Suppliers": "Helena",
        "ContactName": "Greg Mills",
        "ContactTitle": "AGRintelligence Agronomist",
        "Title": "AGRintelligence Agronomist",
        "Email": "gregmills63@gmail.com",
        "OfficePhone": "",
        "CellPhone": "217-202-8644",
        "Address": "2469 Homer Lake Rd.",
        "City": "St. Joseph",
        "State": "IL",
        "Zip": "61873",
        "FullAddress": "2469 Homer Lake Rd., St. Joseph, IL 61873",
        "Category": "Agronomy",
        "FacilityName": "Mattoon (Retail)",
        "LongName": "Helena Agri-Enterprises - IL",
        "MatchTier": "T3",
        "GeoSource": "FACILITY"
      }
    },
    {
      "type": "Feature",
      "geometry": {
        "type": "Point",
        "coordinates": [
          -88.40496,
          39.52165
        ]
      },
      "properties": {
        "Retailer": "HELENA - RETAIL",
        "Suppliers": "Helena",
        "ContactName": "Samantha Harper",
        "ContactTitle": "Sales Rep/Oper. Mgr.",
        "Title": "Sales Rep/Oper. Mgr.",
        "Email": "harpers@helenaagri.com",
        "OfficePhone": "217-286-3562",
        "CellPhone": "217-273-3260",
        "Address": "12959 E. 22750 N. Rd.",
        "City": "Danville",
        "State": "IL",
        "Zip": "61834",
        "FullAddress": "12959 E. 22750 N. Rd., Danville, IL 61834",
        "Category": "Agronomy",
        "FacilityName": "Mattoon (Retail)",
        "LongName": "Helena Agri-Enterprises - IL",
        "MatchTier": "T3",
        "GeoSource": "FACILITY"
      }
    },
    {
      "type": "Feature",
      "geometry": {
        "type": "Point",
        "coordinates": [
          -88.40496,
          39.52165
        ]
      },
      "properties": {
        "Retailer": "HELENA - RETAIL",
        "Suppliers": "Helena",
        "ContactName": "Parker Hathaway",
        "ContactTitle": "Crop Advisor",
        "Title": "Crop Advisor",
        "Email": "hathawayp@helenaagri.com",
        "OfficePhone": "217-286-3562",
        "CellPhone": "217-799-1069",
        "Address": "12960 E. 22750 N. Rd.",
        "City": "Danville",
        "State": "IL",
        "Zip": "61834",
        "FullAddress": "12960 E. 22750 N. Rd., Danville, IL 61834",
        "Category": "Agronomy",
        "FacilityName": "Mattoon (Retail)",
        "LongName": "Helena Agri-Enterprises - IL",
        "MatchTier": "T3",
        "GeoSource": "FACILITY"
      }
    },
    {
      "type": "Feature",
      "geometry": {
        "type": "Point",
        "coordinates": [
          -93.7672,
          41.59779
        ]
      },
      "properties": {
        "Retailer": "HELENA - RETAIL",
        "Suppliers": "Helena",
        "ContactName": "Andy Smarsh",
        "ContactTitle": "West Central Division Mgr. (incl. NE)",
        "Title": "West Central Division Mgr. (incl. NE)",
        "Email": "smarsha@helenaagri.com",
        "OfficePhone": "515-309-3515",
        "CellPhone": "316-640-3248",
        "Address": "4546 Corporate Dr. Ste 170",
        "City": "West Des Moines",
        "State": "IA",
        "Zip": "50266",
        "FullAddress": "4546 Corporate Dr. Ste 170, West Des Moines, IA 50266",
        "Category": "Corporate HQ",
        "FacilityName": "West Central Division Office",
        "LongName": "Helena Agri-Enterprises - IA",
        "MatchTier": "T2",
        "GeoSource": "FACILITY"
      }
    },
    {
      "type": "Feature",
      "geometry": {
        "type": "Point",
        "coordinates": [
          -96.464568,
          41.843669
        ]
      },
      "properties": {
        "Retailer": "HELENA - RETAIL",
        "Suppliers": "Helena",
        "ContactName": "Shannon Harney",
        "ContactTitle": "Sales Manager (East)",
        "Title": "Sales Manager (East)",
        "Email": "harneys@helenaagri.com",
        "OfficePhone": "",
        "CellPhone": "402-380-1208",
        "Address": "503 N. Davis Ave.",
        "City": "Oakland",
        "State": "NE",
        "Zip": "68045",
        "FullAddress": "503 N. Davis Ave., Oakland, NE 68045",
        "Category": "Agronomy",
        "FacilityName": "Oakland Retail",
        "LongName": "Helena Agri-Enterprises - NE",
        "MatchTier": "T2",
        "GeoSource": "FACILITY"
      }
    },
    {
      "type": "Feature",
      "geometry": {
        "type": "Point",
        "coordinates": [
          -96.14921,
          41.15769
        ]
      },
      "properties": {
        "Retailer": "HELENA - RETAIL",
        "Suppliers": "Helena",
        "ContactName": "Keith Mach",
        "ContactTitle": "AGRIntelligence Argonomist (East)",
        "Title": "AGRIntelligence Argonomist (East)",
        "Email": "machk@helenaagri.com",
        "OfficePhone": "",
        "CellPhone": "402-300-0437",
        "Address": "3221 Weaver Ln.",
        "City": "Lincoln",
        "State": "NE",
        "Zip": "68506",
        "FullAddress": "3221 Weaver Ln., Lincoln, NE 68506",
        "Category": "Corporate HQ",
        "FacilityName": "Omaha Specialty",
        "LongName": "Helena Agri-Enterprises - NE",
        "MatchTier": "T3",
        "GeoSource": "FACILITY"
      }
    },
    {
      "type": "Feature",
      "geometry": {
        "type": "Point",
        "coordinates": [
          -96.14921,
          41.15769
        ]
      },
      "properties": {
        "Retailer": "HELENA - RETAIL",
        "Suppliers": "Helena",
        "ContactName": "Lorin Krieger",
        "ContactTitle": "AGRIntelligence Product Mgr. (East)",
        "Title": "AGRIntelligence Product Mgr. (East)",
        "Email": "krieger@helenaagri.com",
        "OfficePhone": "",
        "CellPhone": "402-741-2464",
        "Address": "11120 Cottonwood Dr.",
        "City": "O'Neill",
        "State": "NE",
        "Zip": "68763",
        "FullAddress": "11120 Cottonwood Dr., O'Neill, NE 68763",
        "Category": "Corporate HQ",
        "FacilityName": "Omaha Specialty",
        "LongName": "Helena Agri-Enterprises - NE",
        "MatchTier": "T3",
        "GeoSource": "FACILITY"
      }
    },
    {
      "type": "Feature",
      "geometry": {
        "type": "Point",
        "coordinates": [
          -96.14921,
          41.15769
        ]
      },
      "properties": {
        "Retailer": "HELENA - RETAIL",
        "Suppliers": "Helena",
        "ContactName": "David Tarin",
        "ContactTitle": "Branch Mgr.",
        "Title": "Branch Mgr.",
        "Email": "tarind@helenaagri.com",
        "OfficePhone": "402-944-2139",
        "CellPhone": "531-358-0494",
        "Address": "779 Co. Rd. F.",
        "City": "Ashland",
        "State": "NE",
        "Zip": "68003",
        "FullAddress": "779 Co. Rd. F., Ashland, NE 68003",
        "Category": "Corporate HQ",
        "FacilityName": "Omaha Specialty",
        "LongName": "Helena Agri-Enterprises - NE",
        "MatchTier": "T3",
        "GeoSource": "FACILITY"
      }
    },
    {
      "type": "Feature",
      "geometry": {
        "type": "Point",
        "coordinates": [
          -96.14921,
          41.15769
        ]
      },
      "properties": {
        "Retailer": "HELENA - RETAIL",
        "Suppliers": "Helena",
        "ContactName": "Benjie Scholl",
        "ContactTitle": "Branch Mgr.",
        "Title": "Branch Mgr.",
        "Email": "schollb@helenaagri.com",
        "OfficePhone": "402-379-2910",
        "CellPhone": "402-245-7212",
        "Address": "5th & Wilson St.",
        "City": "Falls City",
        "State": "NE",
        "Zip": "68355",
        "FullAddress": "5th & Wilson St., Falls City, NE 68355",
        "Category": "Corporate HQ",
        "FacilityName": "Omaha Specialty",
        "LongName": "Helena Agri-Enterprises - NE",
        "MatchTier": "T3",
        "GeoSource": "FACILITY"
      }
    },
    {
      "type": "Feature",
      "geometry": {
        "type": "Point",
        "coordinates": [
          -96.464568,
          41.843669
        ]
      },
      "properties": {
        "Retailer": "HELENA - RETAIL",
        "Suppliers": "Helena",
        "ContactName": "Jarvis Quill",
        "ContactTitle": "Branch Mgr.",
        "Title": "Branch Mgr.",
        "Email": "quillj@helenaagri.com",
        "OfficePhone": "402-685-6206",
        "CellPhone": "402-360-2436",
        "Address": "900 N. Charde Ave.",
        "City": "Oakland",
        "State": "NE",
        "Zip": "68045",
        "FullAddress": "900 N. Charde Ave., Oakland, NE 68045",
        "Category": "Agronomy",
        "FacilityName": "Oakland Retail",
        "LongName": "Helena Agri-Enterprises - NE",
        "MatchTier": "T1",
        "GeoSource": "FACILITY"
      }
    },
    {
      "type": "Feature",
      "geometry": {
        "type": "Point",
        "coordinates": [
          -96.464568,
          41.843669
        ]
      },
      "properties": {
        "Retailer": "HELENA - RETAIL",
        "Suppliers": "Helena",
        "ContactName": "Spencer Breckenridge",
        "ContactTitle": "Sales Rep.",
        "Title": "Sales Rep.",
        "Email": "breckenkridges@helenaagri.com",
        "OfficePhone": "",
        "CellPhone": "402-943-6892",
        "Address": "900 N. Charde Ave.",
        "City": "Oakland",
        "State": "NE",
        "Zip": "68045",
        "FullAddress": "900 N. Charde Ave., Oakland, NE 68045",
        "Category": "Agronomy",
        "FacilityName": "Oakland Retail",
        "LongName": "Helena Agri-Enterprises - NE",
        "MatchTier": "T1",
        "GeoSource": "FACILITY"
      }
    },
    {
      "type": "Feature",
      "geometry": {
        "type": "Point",
        "coordinates": [
          -96.464568,
          41.843669
        ]
      },
      "properties": {
        "Retailer": "HELENA - RETAIL",
        "Suppliers": "Helena",
        "ContactName": "James Lynn",
        "ContactTitle": "Seed Mgr.",
        "Title": "Seed Mgr.",
        "Email": "lynnja@helenaagri.com",
        "OfficePhone": "",
        "CellPhone": "531-212-0470",
        "Address": "900 N. Charde Ave.",
        "City": "Oakland",
        "State": "NE",
        "Zip": "68045",
        "FullAddress": "900 N. Charde Ave., Oakland, NE 68045",
        "Category": "Agronomy",
        "FacilityName": "Oakland Retail",
        "LongName": "Helena Agri-Enterprises - NE",
        "MatchTier": "T1",
        "GeoSource": "FACILITY"
      }
    },
    {
      "type": "Feature",
      "geometry": {
        "type": "Point",
        "coordinates": [
          -97.39974,
          42.05719
        ]
      },
      "properties": {
        "Retailer": "HELENA - RETAIL",
        "Suppliers": "Helena",
        "ContactName": "Matt Neujahr",
        "ContactTitle": "Branch Mgr.",
        "Title": "Branch Mgr.",
        "Email": "neujahrm@helenaagri.com",
        "OfficePhone": "402-379-2910",
        "CellPhone": "402-641-8246",
        "Address": "700 E. Eisenhower Ave.",
        "City": "Norfolk",
        "State": "NE",
        "Zip": "68701",
        "FullAddress": "700 E. Eisenhower Ave., Norfolk, NE 68701",
        "Category": "Agronomy",
        "FacilityName": "Norfolk Retail",
        "LongName": "Helena Agri-Enterprises - NE",
        "MatchTier": "T1",
        "GeoSource": "FACILITY"
      }
    },
    {
      "type": "Feature",
      "geometry": {
        "type": "Point",
        "coordinates": [
          -93.7672,
          41.59779
        ]
      },
      "properties": {
        "Retailer": "HELENA - RETAIL",
        "Suppliers": "Helena",
        "ContactName": "John Walter",
        "ContactTitle": "MidWest Division Mgr.",
        "Title": "MidWest Division Mgr.",
        "Email": "walterj@helenaagri.com",
        "OfficePhone": "515-309-3461",
        "CellPhone": "515-650-7986",
        "Address": "4546 Corporate Dr. Ste 170",
        "City": "West Des Moines",
        "State": "IA",
        "Zip": "50266",
        "FullAddress": "4546 Corporate Dr. Ste 170, West Des Moines, IA 50266",
        "Category": "Corporate HQ",
        "FacilityName": "West Central Division Office",
        "LongName": "Helena Agri-Enterprises - IA",
        "MatchTier": "T2",
        "GeoSource": "FACILITY"
      }
    },
    {
      "type": "Feature",
      "geometry": {
        "type": "Point",
        "coordinates": [
          -97.7883,
          43.65538
        ]
      },
      "properties": {
        "Retailer": "HELENA - RETAIL",
        "Suppliers": "Helena",
        "ContactName": "Steven McKechnie",
        "ContactTitle": "AGRIntelligence Argonomist",
        "Title": "AGRIntelligence Argonomist",
        "Email": "mckechnies@helenagri.com",
        "OfficePhone": "",
        "CellPhone": "19-588-7188",
        "Address": "1408 S. Sycamore Ave.",
        "City": "Sioux Falls",
        "State": "SD",
        "Zip": "57110",
        "FullAddress": "1408 S. Sycamore Ave., Sioux Falls, SD 57110",
        "Category": "Corporate HQ",
        "FacilityName": "Alexandria Wholesale",
        "LongName": "Helena Agri-Enterprises - SD",
        "MatchTier": "T3",
        "GeoSource": "FACILITY"
      }
    },
    {
      "type": "Feature",
      "geometry": {
        "type": "Point",
        "coordinates": [
          -94.508442,
          41.683779
        ]
      },
      "properties": {
        "Retailer": "HELENA - RETAIL",
        "Suppliers": "Helena",
        "ContactName": "Jeff Schreck",
        "ContactTitle": "AIGRIntelligence Product Mgr.",
        "Title": "AIGRIntelligence Product Mgr.",
        "Email": "schreckj@helenaagri.com",
        "OfficePhone": "641-747-6303",
        "CellPhone": "641-757-0607",
        "Address": "405 N. 11th St.",
        "City": "Guthrie Center",
        "State": "IA",
        "Zip": "50115",
        "FullAddress": "405 N. 11th St., Guthrie Center, IA 50115",
        "Category": "Agronomy",
        "FacilityName": "Guthrie Center Agronomy",
        "LongName": "Helena Agri-Enterprises - IA",
        "MatchTier": "T2",
        "GeoSource": "FACILITY"
      }
    },
    {
      "type": "Feature",
      "geometry": {
        "type": "Point",
        "coordinates": [
          -97.971605,
          43.184553
        ]
      },
      "properties": {
        "Retailer": "HELENA - RETAIL",
        "Suppliers": "Helena",
        "ContactName": "Nick Lentz",
        "ContactTitle": "Branch Mgr.",
        "Title": "Branch Mgr.",
        "Email": "lentzn@helenaagri.com",
        "OfficePhone": "605-857-5047",
        "CellPhone": "605-870-0520",
        "Address": "514 SD Hwy. 37",
        "City": "Tripp",
        "State": "SD",
        "Zip": "57376",
        "FullAddress": "514 SD Hwy. 37, Tripp, SD 57376",
        "Category": "Agronomy",
        "FacilityName": "Tripp",
        "LongName": "Helena Agri-Enterprises - SD",
        "MatchTier": "T1",
        "GeoSource": "FACILITY"
      }
    },
    {
      "type": "Feature",
      "geometry": {
        "type": "Point",
        "coordinates": [
          -93.766868,
          41.597487
        ]
      },
      "properties": {
        "Retailer": "HELENA-IA",
        "Suppliers": "Helena",
        "ContactName": "John Walter",
        "ContactTitle": "MidWest Division Mgr.",
        "Title": "MidWest Division Mgr.",
        "Email": "walterj@helenaagri.com",
        "OfficePhone": "515-309-3461",
        "CellPhone": "515-650-7986",
        "Address": "4546 Corporate Dr. Ste 170",
        "City": "West Des Moines",
        "State": "IA",
        "Zip": "50266",
        "FullAddress": "4546 Corporate Dr. Ste 170, West Des Moines, IA 50266",
        "Category": "Agronomy",
        "FacilityName": "",
        "LongName": "",
        "MatchTier": "TBD",
        "GeoSource": "MAPBOX"
      }
    },
    {
      "type": "Feature",
      "geometry": {
        "type": "Point",
        "coordinates": [
          -93.766868,
          41.597487
        ]
      },
      "properties": {
        "Retailer": "HELENA-IA",
        "Suppliers": "Helena",
        "ContactName": "Scott Fischer",
        "ContactTitle": "South Sales Mgr.",
        "Title": "South Sales Mgr.",
        "Email": "fischerscott@helenaagri.com",
        "OfficePhone": "515-309-3483",
        "CellPhone": "515-291-7601",
        "Address": "4546 Corporate Dr. Ste 170",
        "City": "West Des Moines",
        "State": "IA",
        "Zip": "50266",
        "FullAddress": "4546 Corporate Dr. Ste 170, West Des Moines, IA 50266",
        "Category": "Agronomy",
        "FacilityName": "",
        "LongName": "",
        "MatchTier": "TBD",
        "GeoSource": "MAPBOX"
      }
    },
    {
      "type": "Feature",
      "geometry": {
        "type": "Point",
        "coordinates": [
          -93.791056,
          41.68838
        ]
      },
      "properties": {
        "Retailer": "HELENA-IA",
        "Suppliers": "Helena",
        "ContactName": "Greg Besch",
        "ContactTitle": "AGRIntelligence Product Mgr.",
        "Title": "AGRIntelligence Product Mgr.",
        "Email": "beschg@helenaagri.com",
        "OfficePhone": "",
        "CellPhone": "515-460-4142",
        "Address": "City Center",
        "City": "Grimes",
        "State": "IA",
        "Zip": "50111",
        "FullAddress": "City Center, Grimes, IA 50111",
        "Category": "Agronomy",
        "FacilityName": "",
        "LongName": "",
        "MatchTier": "TBD",
        "GeoSource": "MAPBOX"
      }
    },
    {
      "type": "Feature",
      "geometry": {
        "type": "Point",
        "coordinates": [
          -93.7672,
          41.59779
        ]
      },
      "properties": {
        "Retailer": "HELENA-RETAIL",
        "Suppliers": "Helena",
        "ContactName": "John Walter",
        "ContactTitle": "MidWest Division Mgr.",
        "Title": "MidWest Division Mgr.",
        "Email": "walterj@helenaagri.com",
        "OfficePhone": "515-309-3461",
        "CellPhone": "515-650-7986",
        "Address": "4546 Corporate Dr. Ste 170",
        "City": "West Des Moines",
        "State": "IA",
        "Zip": "50266",
        "FullAddress": "4546 Corporate Dr. Ste 170, West Des Moines, IA 50266",
        "Category": "Corporate HQ",
        "FacilityName": "West Central Division Office",
        "LongName": "Helena Agri-Enterprises - IA",
        "MatchTier": "T2",
        "GeoSource": "FACILITY"
      }
    },
    {
      "type": "Feature",
      "geometry": {
        "type": "Point",
        "coordinates": [
          -97.7883,
          43.65538
        ]
      },
      "properties": {
        "Retailer": "HELENA-RETAIL",
        "Suppliers": "Helena",
        "ContactName": "Steven McKechnie",
        "ContactTitle": "AGRIntelligence Argonomist",
        "Title": "AGRIntelligence Argonomist",
        "Email": "mckechnies@helenagri.com",
        "OfficePhone": "515-309-3490",
        "CellPhone": "319-588-7188",
        "Address": "1408 S. Sycamore Ave.",
        "City": "Sioux Falls",
        "State": "SD",
        "Zip": "57110",
        "FullAddress": "1408 S. Sycamore Ave., Sioux Falls, SD 57110",
        "Category": "Corporate HQ",
        "FacilityName": "Alexandria Wholesale",
        "LongName": "Helena Agri-Enterprises - SD",
        "MatchTier": "T3",
        "GeoSource": "FACILITY"
      }
    },
    {
      "type": "Feature",
      "geometry": {
        "type": "Point",
        "coordinates": [
          -94.508442,
          41.683779
        ]
      },
      "properties": {
        "Retailer": "HELENA-RETAIL",
        "Suppliers": "Helena",
        "ContactName": "Jeff Schreck",
        "ContactTitle": "AIGRIntelligence Product Mgr.",
        "Title": "AIGRIntelligence Product Mgr.",
        "Email": "schreckj@helenaagri.com",
        "OfficePhone": "641-747-6303",
        "CellPhone": "641-757-0607",
        "Address": "405 N. 11th St.",
        "City": "Guthrie Center",
        "State": "IA",
        "Zip": "50115",
        "FullAddress": "405 N. 11th St., Guthrie Center, IA 50115",
        "Category": "Agronomy",
        "FacilityName": "Guthrie Center Agronomy",
        "LongName": "Helena Agri-Enterprises - IA",
        "MatchTier": "T2",
        "GeoSource": "FACILITY"
      }
    },
    {
      "type": "Feature",
      "geometry": {
        "type": "Point",
        "coordinates": [
          -88.031823,
          40.741477
        ]
      },
      "properties": {
        "Retailer": "Heritage FS",
        "Suppliers": "Growmark",
        "ContactName": "Jason Wesslund",
        "ContactTitle": "Area Manager",
        "Title": "Area Manager",
        "Email": "jwesslund@heritagefs.com",
        "OfficePhone": "815-707-7020",
        "CellPhone": "815-383-8314",
        "Address": "1643 N. US Hwy 45",
        "City": "Gilman",
        "State": "IL",
        "Zip": "60938",
        "FullAddress": "1643 N. US Hwy 45, Gilman, IL 60938",
        "Category": "Agronomy",
        "FacilityName": "Heritage FS – Gilman Agronomy (IL)",
        "LongName": "Heritage FS - IN IL",
        "MatchTier": "T1",
        "GeoSource": "FACILITY"
      }
    },
    {
      "type": "Feature",
      "geometry": {
        "type": "Point",
        "coordinates": [
          -88.03746,
          40.71481
        ]
      },
      "properties": {
        "Retailer": "Heritage FS",
        "Suppliers": "Growmark",
        "ContactName": "Phil Tjardes",
        "ContactTitle": "Location Mgr.",
        "Title": "Location Mgr.",
        "Email": "philt@heritagefs.com",
        "OfficePhone": "815-268-4030",
        "CellPhone": "815-383-0003",
        "Address": "472 E. St. Rt. 54",
        "City": "Onarga",
        "State": "IL",
        "Zip": "60955",
        "FullAddress": "472 E. St. Rt. 54, Onarga, IL 60955",
        "Category": "Agronomy",
        "FacilityName": "Onarga Agronomy",
        "LongName": "Heritage FS - IN IL",
        "MatchTier": "T2",
        "GeoSource": "FACILITY"
      }
    },
    {
      "type": "Feature",
      "geometry": {
        "type": "Point",
        "coordinates": [
          -87.99577,
          40.75008
        ]
      },
      "properties": {
        "Retailer": "Heritage FS",
        "Suppliers": "Growmark",
        "ContactName": "Danny Diemers",
        "ContactTitle": "Crop Specialist",
        "Title": "Crop Specialist",
        "Email": "",
        "OfficePhone": "",
        "CellPhone": "",
        "Address": "596 S. 12000 W Rd.",
        "City": "Herscher",
        "State": "IL",
        "Zip": "60941",
        "FullAddress": "596 S. 12000 W Rd., Herscher, IL 60941",
        "Category": "Corporate HQ",
        "FacilityName": "Corporate Office",
        "LongName": "Heritage FS - IN IL",
        "MatchTier": "T3",
        "GeoSource": "FACILITY"
      }
    },
    {
      "type": "Feature",
      "geometry": {
        "type": "Point",
        "coordinates": [
          -87.99577,
          40.75008
        ]
      },
      "properties": {
        "Retailer": "Heritage FS",
        "Suppliers": "Growmark",
        "ContactName": "Darrin Schumacher",
        "ContactTitle": "Liq. Fuel Del.",
        "Title": "Liq. Fuel Del.",
        "Email": "dschumacher@heritagefs.com",
        "OfficePhone": "815-426-6556",
        "CellPhone": "815-378-3418",
        "Address": "596 S. 12000 W Rd.",
        "City": "Herscher",
        "State": "IL",
        "Zip": "60941",
        "FullAddress": "596 S. 12000 W Rd., Herscher, IL 60941",
        "Category": "Corporate HQ",
        "FacilityName": "Corporate Office",
        "LongName": "Heritage FS - IN IL",
        "MatchTier": "T3",
        "GeoSource": "FACILITY"
      }
    },
    {
      "type": "Feature",
      "geometry": {
        "type": "Point",
        "coordinates": [
          -88.955898,
          39.841415
        ]
      },
      "properties": {
        "Retailer": "Herrin",
        "Suppliers": "",
        "ContactName": "Greg Hooten",
        "ContactTitle": "Fert./Chem.",
        "Title": "Fert./Chem.",
        "Email": "ghooten78@gmail.com",
        "OfficePhone": "217-498-7851",
        "CellPhone": "217-273-6230",
        "Address": "City Center",
        "City": "Rochester",
        "State": "IL",
        "Zip": "62523",
        "FullAddress": "City Center, Rochester, IL 62523",
        "Category": "Agronomy",
        "FacilityName": "",
        "LongName": "",
        "MatchTier": "TBD",
        "GeoSource": "MAPBOX"
      }
    },
    {
      "type": "Feature",
      "geometry": {
        "type": "Point",
        "coordinates": [
          -101.389218,
          40.844309
        ]
      },
      "properties": {
        "Retailer": "Hi-Line Cooperative",
        "Suppliers": "Winfield, Nutrien, Rosen's",
        "ContactName": "Chris Fryzek",
        "ContactTitle": "CEO/Gen. Mgr.",
        "Title": "CEO/Gen. Mgr.",
        "Email": "chrisf@hilinecoop.com",
        "OfficePhone": "308-352-2800",
        "CellPhone": "",
        "Address": "203 S. Perkins Ave.",
        "City": "Elsie",
        "State": "NE",
        "Zip": "69123",
        "FullAddress": "203 S. Perkins Ave., Elsie, NE 69123",
        "Category": "Corporate HQ",
        "FacilityName": "Elsie Corporate HQ",
        "LongName": "Hi-Line Cooperative - NE",
        "MatchTier": "T3",
        "GeoSource": "FACILITY"
      }
    },
    {
      "type": "Feature",
      "geometry": {
        "type": "Point",
        "coordinates": [
          -96.23287,
          41.87289
        ]
      },
      "properties": {
        "Retailer": "HiWay 75 Ag, LLC",
        "Suppliers": "Nutrien",
        "ContactName": "Brett Kazemba",
        "ContactTitle": "Co-Owner",
        "Title": "Co-Owner",
        "Email": "brettkazemba@hwy75.net",
        "OfficePhone": "402-870-0278",
        "CellPhone": "",
        "Address": "1426 Hwy. 75",
        "City": "Tekamah",
        "State": "NE",
        "Zip": "68061",
        "FullAddress": "1426 Hwy. 75, Tekamah, NE 68061",
        "Category": "Agronomy",
        "FacilityName": "",
        "LongName": "",
        "MatchTier": "TBD",
        "GeoSource": "MAPBOX"
      }
    },
    {
      "type": "Feature",
      "geometry": {
        "type": "Point",
        "coordinates": [
          -96.23287,
          41.87289
        ]
      },
      "properties": {
        "Retailer": "HiWay 75 Ag, LLC",
        "Suppliers": "Nutrien",
        "ContactName": "Dash Cameron",
        "ContactTitle": "Operations Mgr.",
        "Title": "Operations Mgr.",
        "Email": "dashcameron@hwy75.net",
        "OfficePhone": "402-870-0278",
        "CellPhone": "402-936-5166",
        "Address": "1426 Hwy. 75",
        "City": "Tekamah",
        "State": "NE",
        "Zip": "68061",
        "FullAddress": "1426 Hwy. 75, Tekamah, NE 68061",
        "Category": "Agronomy",
        "FacilityName": "",
        "LongName": "",
        "MatchTier": "TBD",
        "GeoSource": "MAPBOX"
      }
    },
    {
      "type": "Feature",
      "geometry": {
        "type": "Point",
        "coordinates": [
          -96.129558,
          43.188484
        ]
      },
      "properties": {
        "Retailer": "Hull Coop",
        "Suppliers": "Winfield, Nutrien",
        "ContactName": "Lonnie Egdorf",
        "ContactTitle": "Agronomy Sales",
        "Title": "Agronomy Sales",
        "Email": "lonnie.egdorf@hullcoop.com",
        "OfficePhone": "712-439-2831",
        "CellPhone": "712-441-1185",
        "Address": "1206 Railroad St",
        "City": "Hull",
        "State": "IA",
        "Zip": "51239",
        "FullAddress": "1206 Railroad St, Hull, IA 51239",
        "Category": "Corporate HQ",
        "FacilityName": "Hull Coop - HQ",
        "LongName": "Hull Cooperative - IA",
        "MatchTier": "T2",
        "GeoSource": "FACILITY"
      }
    },
    {
      "type": "Feature",
      "geometry": {
        "type": "Point",
        "coordinates": [
          -96.129558,
          43.188484
        ]
      },
      "properties": {
        "Retailer": "Hull Coop",
        "Suppliers": "Winfield, Nutrien",
        "ContactName": "Peter Westra",
        "ContactTitle": "Agronomy Dept. Mgr.",
        "Title": "Agronomy Dept. Mgr.",
        "Email": "peter.westra@hullcoop.com",
        "OfficePhone": "712-439-2832",
        "CellPhone": "712-470-0994",
        "Address": "1207 Railroad St",
        "City": "Hull",
        "State": "IA",
        "Zip": "51239",
        "FullAddress": "1207 Railroad St, Hull, IA 51239",
        "Category": "Corporate HQ",
        "FacilityName": "Hull Coop - HQ",
        "LongName": "Hull Cooperative - IA",
        "MatchTier": "T2",
        "GeoSource": "FACILITY"
      }
    },
    {
      "type": "Feature",
      "geometry": {
        "type": "Point",
        "coordinates": [
          -87.938951,
          39.79495
        ]
      },
      "properties": {
        "Retailer": "Illini FS",
        "Suppliers": "Growmark",
        "ContactName": "Mark Dowell",
        "ContactTitle": "Cert. Crop Spec.",
        "Title": "Cert. Crop Spec.",
        "Email": "mdowell@illinifs.com",
        "OfficePhone": "217-837-2051",
        "CellPhone": "217-497-2477",
        "Address": "998 N. St. Rt. 49",
        "City": "Newman",
        "State": "IL",
        "Zip": "61942",
        "FullAddress": "998 N. St. Rt. 49, Newman, IL 61942",
        "Category": "Agronomy",
        "FacilityName": "Newman Agronomy",
        "LongName": "Illini FS - IL",
        "MatchTier": "T2",
        "GeoSource": "FACILITY"
      }
    },
    {
      "type": "Feature",
      "geometry": {
        "type": "Point",
        "coordinates": [
          -87.938951,
          39.79495
        ]
      },
      "properties": {
        "Retailer": "Illini FS",
        "Suppliers": "Growmark",
        "ContactName": "Nellie Cox",
        "ContactTitle": "Loc. Admin.",
        "Title": "Loc. Admin.",
        "Email": "ncox@illinifs.com",
        "OfficePhone": "217-837-2051",
        "CellPhone": "217-280-0708",
        "Address": "998 N. St. Rt. 49",
        "City": "Newman",
        "State": "IL",
        "Zip": "61942",
        "FullAddress": "998 N. St. Rt. 49, Newman, IL 61942",
        "Category": "Agronomy",
        "FacilityName": "Newman Agronomy",
        "LongName": "Illini FS - IL",
        "MatchTier": "T2",
        "GeoSource": "FACILITY"
      }
    },
    {
      "type": "Feature",
      "geometry": {
        "type": "Point",
        "coordinates": [
          -93.800456,
          42.051072
        ]
      },
      "properties": {
        "Retailer": "Landus Coop.",
        "Suppliers": "IAP",
        "ContactName": "Scott Ahrenholz",
        "ContactTitle": "Tech. Sales Mgr.",
        "Title": "Tech. Sales Mgr.",
        "Email": "scott.ahrenholtz@landus.ag",
        "OfficePhone": "",
        "CellPhone": "515-686-0850",
        "Address": "1095 T. Ave.",
        "City": "Boone",
        "State": "IA",
        "Zip": "50036",
        "FullAddress": "1095 T. Ave., Boone, IA 50036",
        "Category": "Agronomy",
        "FacilityName": "Boone",
        "LongName": "Landus Coop - IA MN",
        "MatchTier": "T1",
        "GeoSource": "FACILITY"
      }
    },
    {
      "type": "Feature",
      "geometry": {
        "type": "Point",
        "coordinates": [
          -93.800456,
          42.051072
        ]
      },
      "properties": {
        "Retailer": "Landus Coop.",
        "Suppliers": "IAP",
        "ContactName": "Wade Kent",
        "ContactTitle": "Acre Edge Mgr.",
        "Title": "Acre Edge Mgr.",
        "Email": "wade.kent@@conduit.ag",
        "OfficePhone": "",
        "CellPhone": "515-341-4247",
        "Address": "1095 T. Ave.",
        "City": "Boone",
        "State": "IA",
        "Zip": "50036",
        "FullAddress": "1095 T. Ave., Boone, IA 50036",
        "Category": "Agronomy",
        "FacilityName": "Boone",
        "LongName": "Landus Coop - IA MN",
        "MatchTier": "T1",
        "GeoSource": "FACILITY"
      }
    },
    {
      "type": "Feature",
      "geometry": {
        "type": "Point",
        "coordinates": [
          -103.667634,
          41.854713
        ]
      },
      "properties": {
        "Retailer": "Legacy Coop",
        "Suppliers": "",
        "ContactName": "Sean Gross",
        "ContactTitle": "Sales Agronomist",
        "Title": "Sales Agronomist",
        "Email": "sgross@panhandlecoop.com",
        "OfficePhone": "308-632-5301",
        "CellPhone": "308-225-1232",
        "Address": "401 S. Beltline Hwy West",
        "City": "Scottsbluff",
        "State": "NE",
        "Zip": "69363",
        "FullAddress": "401 S. Beltline Hwy West, Scottsbluff, NE 69363",
        "Category": "Agronomy",
        "FacilityName": "",
        "LongName": "",
        "MatchTier": "TBD",
        "GeoSource": "MAPBOX"
      }
    },
    {
      "type": "Feature",
      "geometry": {
        "type": "Point",
        "coordinates": [
          -95.26323,
          44.2327
        ]
      },
      "properties": {
        "Retailer": "Meadowland Famers Coop.",
        "Suppliers": "Helena, Nutrien, Winfield",
        "ContactName": "Ralph Price",
        "ContactTitle": "Agronomy Mgr.",
        "Title": "Agronomy Mgr.",
        "Email": "rprice@mfcoop.us",
        "OfficePhone": "507-752-7352",
        "CellPhone": "507-221-0321",
        "Address": "101 1st Ave. E.",
        "City": "Lamberton",
        "State": "MN",
        "Zip": "56152",
        "FullAddress": "101 1st Ave. E., Lamberton, MN 56152",
        "Category": "Agronomy",
        "FacilityName": "",
        "LongName": "",
        "MatchTier": "TBD",
        "GeoSource": "MAPBOX"
      }
    },
    {
      "type": "Feature",
      "geometry": {
        "type": "Point",
        "coordinates": [
          -95.128075,
          44.211002
        ]
      },
      "properties": {
        "Retailer": "Meadowland Famers Coop.",
        "Suppliers": "Helena, Nutrien, Winfield",
        "ContactName": "Curt Erickson",
        "ContactTitle": "Agronomy Loc. Mgr.",
        "Title": "Agronomy Loc. Mgr.",
        "Email": "cerickson@mfcoop.us",
        "OfficePhone": "507-648-3831",
        "CellPhone": "507-830-1251",
        "Address": "220 N. Main",
        "City": "Sanborn",
        "State": "MN",
        "Zip": "56083",
        "FullAddress": "220 N. Main, Sanborn, MN 56083",
        "Category": "Agronomy",
        "FacilityName": "",
        "LongName": "",
        "MatchTier": "TBD",
        "GeoSource": "MAPBOX"
      }
    },
    {
      "type": "Feature",
      "geometry": {
        "type": "Point",
        "coordinates": [
          -95.25574,
          44.398225
        ]
      },
      "properties": {
        "Retailer": "Meadowland Famers Coop.",
        "Suppliers": "Helena, Nutrien, Winfield",
        "ContactName": "Brian Fischer",
        "ContactTitle": "Agronomy Loc. Mgr.",
        "Title": "Agronomy Loc. Mgr.",
        "Email": "bfischer@mfcoop.us",
        "OfficePhone": "507-342-5163",
        "CellPhone": "507-829-4929",
        "Address": "140 State Hwy 68",
        "City": "Wabasso",
        "State": "MN",
        "Zip": "56293",
        "FullAddress": "140 State Hwy 68, Wabasso, MN 56293",
        "Category": "Agronomy",
        "FacilityName": "",
        "LongName": "",
        "MatchTier": "TBD",
        "GeoSource": "MAPBOX"
      }
    },
    {
      "type": "Feature",
      "geometry": {
        "type": "Point",
        "coordinates": [
          -96.22117,
          41.76085
        ]
      },
      "properties": {
        "Retailer": "Midwest Service Inc.",
        "Suppliers": "Winfield, Helena",
        "ContactName": "Jason Hansen",
        "ContactTitle": "Head of Agron/Seed",
        "Title": "Head of Agron/Seed",
        "Email": "jasonhansenmws@gmail.com",
        "OfficePhone": "402-374-2275",
        "CellPhone": "402-870-2231",
        "Address": "649 Hwy 75",
        "City": "Tekamah",
        "State": "NE",
        "Zip": "68061",
        "FullAddress": "649 Hwy 75, Tekamah, NE 68061",
        "Category": "Agronomy",
        "FacilityName": "",
        "LongName": "",
        "MatchTier": "TBD",
        "GeoSource": "MAPBOX"
      }
    },
    {
      "type": "Feature",
      "geometry": {
        "type": "Point",
        "coordinates": [
          -94.161031,
          42.505943
        ]
      },
      "properties": {
        "Retailer": "NEW Cooperative",
        "Suppliers": "Winfield",
        "ContactName": "Shan Jaeshke",
        "ContactTitle": "Agronomy Mgr.",
        "Title": "Agronomy Mgr.",
        "Email": "sjaeshke@newcoop.com",
        "OfficePhone": "",
        "CellPhone": "",
        "Address": "2626 1st Ave. South",
        "City": "Ft. Dodge",
        "State": "IA",
        "Zip": "50501",
        "FullAddress": "2626 1st Ave. South, Ft. Dodge, IA 50501",
        "Category": "Corporate HQ",
        "FacilityName": "Fort Dodge Office",
        "LongName": "NEW Cooperative - IA",
        "MatchTier": "T3",
        "GeoSource": "FACILITY"
      }
    },
    {
      "type": "Feature",
      "geometry": {
        "type": "Point",
        "coordinates": [
          -94.161031,
          42.505943
        ]
      },
      "properties": {
        "Retailer": "NEW Cooperative",
        "Suppliers": "Winfield",
        "ContactName": "Colby Kraninger",
        "ContactTitle": "Agronomist",
        "Title": "Agronomist",
        "Email": "ckraninger@newcoop.com",
        "OfficePhone": "",
        "CellPhone": "515-341-6717",
        "Address": "4498 Works Rd.",
        "City": "Emmetsburg",
        "State": "IA",
        "Zip": "50536",
        "FullAddress": "4498 Works Rd., Emmetsburg, IA 50536",
        "Category": "Corporate HQ",
        "FacilityName": "Fort Dodge Office",
        "LongName": "NEW Cooperative - IA",
        "MatchTier": "T3",
        "GeoSource": "FACILITY"
      }
    },
    {
      "type": "Feature",
      "geometry": {
        "type": "Point",
        "coordinates": [
          -87.667076,
          39.26386
        ]
      },
      "properties": {
        "Retailer": "NUTRIEN - RETAIL",
        "Suppliers": "Nutrien",
        "ContactName": "Brian Williams",
        "ContactTitle": "Sales Manager",
        "Title": "Sales Manager",
        "Email": "",
        "OfficePhone": "",
        "CellPhone": "217-822-8347",
        "Address": "7847 IL 1",
        "City": "West Union",
        "State": "IL",
        "Zip": "62477",
        "FullAddress": "7847 IL 1, West Union, IL 62477",
        "Category": "Agronomy",
        "FacilityName": "",
        "LongName": "",
        "MatchTier": "TBD",
        "GeoSource": "MAPBOX"
      }
    },
    {
      "type": "Feature",
      "geometry": {
        "type": "Point",
        "coordinates": [
          -103.794127,
          41.906082
        ]
      },
      "properties": {
        "Retailer": "NUTRIEN - RETAIL",
        "Suppliers": "Nutrien",
        "ContactName": "Mike Monke",
        "ContactTitle": "Location Mgr.",
        "Title": "Location Mgr.",
        "Email": "mike.monke@nutrien.com",
        "OfficePhone": "402-478-4153",
        "CellPhone": "402-533-3754",
        "Address": "70098 County Rd. 15",
        "City": "Arlington",
        "State": "NE",
        "Zip": "68002",
        "FullAddress": "70098 County Rd. 15, Arlington, NE 68002",
        "Category": "Agronomy",
        "FacilityName": "",
        "LongName": "",
        "MatchTier": "TBD",
        "GeoSource": "MAPBOX"
      }
    },
    {
      "type": "Feature",
      "geometry": {
        "type": "Point",
        "coordinates": [
          -93.772,
          41.637391
        ]
      },
      "properties": {
        "Retailer": "NUTRIEN-IA",
        "Suppliers": "Nutrien",
        "ContactName": "Robb Kittsman",
        "ContactTitle": "Central IA Division Mgr.",
        "Title": "Central IA Division Mgr.",
        "Email": "robb.kitzman@nutrien.com",
        "OfficePhone": "",
        "CellPhone": "563-543-7398",
        "Address": "11236 Aurora Ave.",
        "City": "Urbandale",
        "State": "IA",
        "Zip": "50322",
        "FullAddress": "11236 Aurora Ave., Urbandale, IA 50322",
        "Category": "Agronomy",
        "FacilityName": "",
        "LongName": "",
        "MatchTier": "TBD",
        "GeoSource": "MAPBOX"
      }
    },
    {
      "type": "Feature",
      "geometry": {
        "type": "Point",
        "coordinates": [
          -93.87374,
          42.056924
        ]
      },
      "properties": {
        "Retailer": "NUTRIEN-IA",
        "Suppliers": "Nutrien",
        "ContactName": "Wade Eisenbarth",
        "ContactTitle": "Branch Mgr.",
        "Title": "Branch Mgr.",
        "Email": "wade.eisenbarth@nutrien.com",
        "OfficePhone": "515-320-0960",
        "CellPhone": "515-882-3234",
        "Address": "109 Linn St.",
        "City": "LuVerne",
        "State": "IA",
        "Zip": "59560",
        "FullAddress": "109 Linn St., LuVerne, IA 59560",
        "Category": "Agronomy",
        "FacilityName": "",
        "LongName": "",
        "MatchTier": "TBD",
        "GeoSource": "MAPBOX"
      }
    },
    {
      "type": "Feature",
      "geometry": {
        "type": "Point",
        "coordinates": [
          -95.089521,
          42.255032
        ]
      },
      "properties": {
        "Retailer": "NUTRIEN-IA",
        "Suppliers": "Nutrien",
        "ContactName": "Joel Nelson",
        "ContactTitle": "Agronomist",
        "Title": "Agronomist",
        "Email": "joel.nelson@nutrien.com",
        "OfficePhone": "",
        "CellPhone": "319-551-8753",
        "Address": "1215 S. Center Street",
        "City": "Wall Lake",
        "State": "IA",
        "Zip": "51466",
        "FullAddress": "1215 S. Center Street, Wall Lake, IA 51466",
        "Category": "Agronomy",
        "FacilityName": "",
        "LongName": "",
        "MatchTier": "TBD",
        "GeoSource": "MAPBOX"
      }
    },
    {
      "type": "Feature",
      "geometry": {
        "type": "Point",
        "coordinates": [
          -95.192608,
          43.682916
        ]
      },
      "properties": {
        "Retailer": "NUTRIEN-RETAIL",
        "Suppliers": "Nutrien",
        "ContactName": "Tom Kellen",
        "ContactTitle": "Area Mgr.",
        "Title": "Area Mgr.",
        "Email": "tom.kellen@nutrien.com",
        "OfficePhone": "507-662-5442",
        "CellPhone": "507-360-5621",
        "Address": "44107 Okabena Rd.",
        "City": "Lakefield",
        "State": "MN",
        "Zip": "56150",
        "FullAddress": "44107 Okabena Rd., Lakefield, MN 56150",
        "Category": "Agronomy",
        "FacilityName": "",
        "LongName": "",
        "MatchTier": "TBD",
        "GeoSource": "MAPBOX"
      }
    },
    {
      "type": "Feature",
      "geometry": {
        "type": "Point",
        "coordinates": [
          -99.753867,
          40.780391
        ]
      },
      "properties": {
        "Retailer": "O'Hanlon Seed & Irrigation",
        "Suppliers": "",
        "ContactName": "Dustin O'Hanlon",
        "ContactTitle": "Owner",
        "Title": "Owner",
        "Email": "dustin.ohanlon@gmail.com",
        "OfficePhone": "308-324-4567",
        "CellPhone": "308-325-7987",
        "Address": "921 W. 7th",
        "City": "Lexington",
        "State": "NE",
        "Zip": "68850",
        "FullAddress": "921 W. 7th, Lexington, NE 68850",
        "Category": "Agronomy",
        "FacilityName": "",
        "LongName": "",
        "MatchTier": "TBD",
        "GeoSource": "MAPBOX"
      }
    },
    {
      "type": "Feature",
      "geometry": {
        "type": "Point",
        "coordinates": [
          -88.778559,
          41.376568
        ]
      },
      "properties": {
        "Retailer": "Ottawa Plant Food",
        "Suppliers": "Rosen's",
        "ContactName": "Anita Pleasant",
        "ContactTitle": "Sales Territory Mgr.",
        "Title": "Sales Territory Mgr.",
        "Email": "apleasant@ottawaplantfood.com",
        "OfficePhone": "815-433-2090",
        "CellPhone": "217-663-4770",
        "Address": "3076 N. Rt. 71",
        "City": "Ottawa",
        "State": "IL",
        "Zip": "61350",
        "FullAddress": "3076 N. Rt. 71, Ottawa, IL 61350",
        "Category": "Agronomy",
        "FacilityName": "",
        "LongName": "",
        "MatchTier": "TBD",
        "GeoSource": "MAPBOX"
      }
    },
    {
      "type": "Feature",
      "geometry": {
        "type": "Point",
        "coordinates": [
          -97.27355,
          41.70733
        ]
      },
      "properties": {
        "Retailer": "Redstar Fertilizer",
        "Suppliers": "IAP, Helena",
        "ContactName": "Ryan Mullenhoff",
        "ContactTitle": "Owner",
        "Title": "Owner",
        "Email": "ryan@redstarne.com",
        "OfficePhone": "",
        "CellPhone": "402-936-5166",
        "Address": "48303 115 Ave.",
        "City": "Leigh",
        "State": "NE",
        "Zip": "68643",
        "FullAddress": "48303 115 Ave., Leigh, NE 68643",
        "Category": "Agronomy",
        "FacilityName": "",
        "LongName": "",
        "MatchTier": "TBD",
        "GeoSource": "MAPBOX"
      }
    },
    {
      "type": "Feature",
      "geometry": {
        "type": "Point",
        "coordinates": [
          -97.27355,
          41.70733
        ]
      },
      "properties": {
        "Retailer": "Redstar Fertilizer",
        "Suppliers": "IAP, Helena",
        "ContactName": "Tom Stanton",
        "ContactTitle": "Head of REDSTAR BRANDED",
        "Title": "Head of REDSTAR BRANDED",
        "Email": "tomstanton@redstarfertilizer.com",
        "OfficePhone": "844-502-9368",
        "CellPhone": "712-301-2549",
        "Address": "48303 115 Ave.",
        "City": "Leigh",
        "State": "NE",
        "Zip": "68643",
        "FullAddress": "48303 115 Ave., Leigh, NE 68643",
        "Category": "Agronomy",
        "FacilityName": "",
        "LongName": "",
        "MatchTier": "TBD",
        "GeoSource": "MAPBOX"
      }
    },
    {
      "type": "Feature",
      "geometry": {
        "type": "Point",
        "coordinates": [
          -93.615105,
          41.58889
        ]
      },
      "properties": {
        "Retailer": "Rosen's - RETAIL",
        "Suppliers": "Rosen's",
        "ContactName": "Adam Baker",
        "ContactTitle": "Regional Sales Manager",
        "Title": "Regional Sales Manager",
        "Email": "abaker@riw2000.com",
        "OfficePhone": "",
        "CellPhone": "641--525-2503",
        "Address": "City Center",
        "City": "Des Moines",
        "State": "IA",
        "Zip": "50301",
        "FullAddress": "City Center, Des Moines, IA 50301",
        "Category": "Agronomy",
        "FacilityName": "",
        "LongName": "",
        "MatchTier": "TBD",
        "GeoSource": "MAPBOX"
      }
    },
    {
      "type": "Feature",
      "geometry": {
        "type": "Point",
        "coordinates": [
          -93.138298,
          44.452167
        ]
      },
      "properties": {
        "Retailer": "ROSEN'S - HQ",
        "Suppliers": "Rosen's",
        "ContactName": "Steve Koziolek",
        "ContactTitle": "Market Mgr.",
        "Title": "Market Mgr.",
        "Email": "skoziolek@riw2000.com",
        "OfficePhone": "507-664-0520",
        "CellPhone": "612-240-5840",
        "Address": "800 Mayflower Ct.",
        "City": "Northfield",
        "State": "MN",
        "Zip": "55057",
        "FullAddress": "800 Mayflower Ct., Northfield, MN 55057",
        "Category": "Agronomy",
        "FacilityName": "",
        "LongName": "",
        "MatchTier": "TBD",
        "GeoSource": "MAPBOX"
      }
    },
    {
      "type": "Feature",
      "geometry": {
        "type": "Point",
        "coordinates": [
          -93.3482,
          44.967881
        ]
      },
      "properties": {
        "Retailer": "ROSEN'S - HQ",
        "Suppliers": "Rosen's",
        "ContactName": "Kyle Lilly",
        "ContactTitle": "Director of Product Dev.",
        "Title": "Director of Product Dev.",
        "Email": "klilly@riw2000.com",
        "OfficePhone": "Remote",
        "CellPhone": "913-333-6108",
        "Address": "St. Louis Park",
        "City": "Minneapolis",
        "State": "MN",
        "Zip": "55416",
        "FullAddress": "St. Louis Park, Minneapolis, MN 55416",
        "Category": "Agronomy",
        "FacilityName": "",
        "LongName": "",
        "MatchTier": "TBD",
        "GeoSource": "MAPBOX"
      }
    },
    {
      "type": "Feature",
      "geometry": {
        "type": "Point",
        "coordinates": [
          -88.716722,
          40.40084
        ]
      },
      "properties": {
        "Retailer": "Rosen's - RETAIL",
        "Suppliers": "Rosen's",
        "ContactName": "Shawn Clapp",
        "ContactTitle": "VP Plant Nutrition",
        "Title": "VP Plant Nutrition",
        "Email": "sclapp@riw2000.com",
        "OfficePhone": "",
        "CellPhone": "309-261-1378",
        "Address": "763 N. 2850 East Rd.",
        "City": "Leroy",
        "State": "IL",
        "Zip": "61752",
        "FullAddress": "763 N. 2850 East Rd., Leroy, IL 61752",
        "Category": "Agronomy",
        "FacilityName": "",
        "LongName": "",
        "MatchTier": "TBD",
        "GeoSource": "MAPBOX"
      }
    },
    {
      "type": "Feature",
      "geometry": {
        "type": "Point",
        "coordinates": [
          -96.684549,
          40.715249
        ]
      },
      "properties": {
        "Retailer": "Rosen's - RETAIL",
        "Suppliers": "Rosen's",
        "ContactName": "Dave Clemans",
        "ContactTitle": "Area Mgr.",
        "Title": "Area Mgr.",
        "Email": "dclemans@riw2000.com",
        "OfficePhone": "402-423-3303",
        "CellPhone": "308-380-1993",
        "Address": "9700 Wildfire Circle",
        "City": "Lincoln",
        "State": "NE",
        "Zip": "68512",
        "FullAddress": "9700 Wildfire Circle, Lincoln, NE 68512",
        "Category": "Agronomy",
        "FacilityName": "",
        "LongName": "",
        "MatchTier": "TBD",
        "GeoSource": "MAPBOX"
      }
    },
    {
      "type": "Feature",
      "geometry": {
        "type": "Point",
        "coordinates": [
          -96.78869,
          42.8504
        ]
      },
      "properties": {
        "Retailer": "Southeast Farmers Coop",
        "Suppliers": "Winfield",
        "ContactName": "Josh Adams",
        "ContactTitle": "Agron. Mgr.",
        "Title": "Agron. Mgr.",
        "Email": "j.adams@southeastfarmers.com",
        "OfficePhone": "",
        "CellPhone": "605-253-6150",
        "Address": "31303 471st Ave.",
        "City": "Burbank",
        "State": "SD",
        "Zip": "57010",
        "FullAddress": "31303 471st Ave., Burbank, SD 57010",
        "Category": "Agronomy",
        "FacilityName": "",
        "LongName": "",
        "MatchTier": "TBD",
        "GeoSource": "MAPBOX"
      }
    },
    {
      "type": "Feature",
      "geometry": {
        "type": "Point",
        "coordinates": [
          -90.208789,
          39.954919
        ]
      },
      "properties": {
        "Retailer": "Sunrise FS",
        "Suppliers": "Growmark",
        "ContactName": "Ross Barker",
        "ContactTitle": "Crop Specialist",
        "Title": "Crop Specialist",
        "Email": "rbarker@sunrise-fs.com",
        "OfficePhone": "217-204-7418",
        "CellPhone": "",
        "Address": "20735 IL Rt. 125",
        "City": "Virginia",
        "State": "IL",
        "Zip": "62691",
        "FullAddress": "20735 IL Rt. 125, Virginia, IL 62691",
        "Category": "Agronomy",
        "FacilityName": "",
        "LongName": "",
        "MatchTier": "TBD",
        "GeoSource": "MAPBOX"
      }
    },
    {
      "type": "Feature",
      "geometry": {
        "type": "Point",
        "coordinates": [
          -87.705895,
          39.398428
        ]
      },
      "properties": {
        "Retailer": "The EQUITY",
        "Suppliers": "Winfield",
        "ContactName": "John Babcock",
        "ContactTitle": "Sales Manager",
        "Title": "Sales Manager",
        "Email": "",
        "OfficePhone": "217-826-6331",
        "CellPhone": "217-822-0015",
        "Address": "16990 N 2nd St",
        "City": "Marshall",
        "State": "IL",
        "Zip": "62441",
        "FullAddress": "16990 N 2nd St, Marshall, IL 62441",
        "Category": "Agronomy",
        "FacilityName": "",
        "LongName": "",
        "MatchTier": "TBD",
        "GeoSource": "MAPBOX"
      }
    },
    {
      "type": "Feature",
      "geometry": {
        "type": "Point",
        "coordinates": [
          -91.13876,
          42.47211
        ]
      },
      "properties": {
        "Retailer": "Three Rivers FS",
        "Suppliers": "Growmark",
        "ContactName": "Chris Salrin",
        "ContactTitle": "",
        "Title": "",
        "Email": "csalrin@threeriversfs.com",
        "OfficePhone": "",
        "CellPhone": "",
        "Address": "1200 Field of Dreams Way",
        "City": "Dyersville",
        "State": "IA",
        "Zip": "52040",
        "FullAddress": "1200 Field of Dreams Way, Dyersville, IA 52040",
        "Category": "Corporate HQ",
        "FacilityName": "Corporate Headquarters",
        "LongName": "Three Rivers FS - IA",
        "MatchTier": "T1",
        "GeoSource": "FACILITY"
      }
    },
    {
      "type": "Feature",
      "geometry": {
        "type": "Point",
        "coordinates": [
          -90.933227,
          42.447676
        ]
      },
      "properties": {
        "Retailer": "Three Rivers FS",
        "Suppliers": "Growmark",
        "ContactName": "Joe Vorwald",
        "ContactTitle": "",
        "Title": "",
        "Email": "jvorwald@threeriversfs.com",
        "OfficePhone": "",
        "CellPhone": "",
        "Address": "303 North Center Ave.",
        "City": "Epworth",
        "State": "IA",
        "Zip": "52045",
        "FullAddress": "303 North Center Ave., Epworth, IA 52045",
        "Category": "Agronomy",
        "FacilityName": "Epworth Agronomy",
        "LongName": "Three Rivers FS - IA",
        "MatchTier": "T1",
        "GeoSource": "FACILITY"
      }
    },
    {
      "type": "Feature",
      "geometry": {
        "type": "Point",
        "coordinates": [
          -90.83598,
          42.47283
        ]
      },
      "properties": {
        "Retailer": "Three Rivers FS",
        "Suppliers": "Growmark",
        "ContactName": "Joe Vorwald",
        "ContactTitle": "",
        "Title": "",
        "Email": "jvorwald@threeriversfs.com",
        "OfficePhone": "",
        "CellPhone": "",
        "Address": "18179 Olde Hiway Road",
        "City": "Centralia",
        "State": "IA",
        "Zip": "52068",
        "FullAddress": "18179 Olde Hiway Road, Centralia, IA 52068",
        "Category": "Agronomy",
        "FacilityName": "Centralia Agronomy",
        "LongName": "Three Rivers FS - IA",
        "MatchTier": "T1",
        "GeoSource": "FACILITY"
      }
    },
    {
      "type": "Feature",
      "geometry": {
        "type": "Point",
        "coordinates": [
          -90.98602,
          42.592913
        ]
      },
      "properties": {
        "Retailer": "Three Rivers FS",
        "Suppliers": "Growmark",
        "ContactName": "Gary Connolly",
        "ContactTitle": "",
        "Title": "",
        "Email": "gconnolly@threeriversfs.com",
        "OfficePhone": "",
        "CellPhone": "",
        "Address": "20340 Holy Cross Road",
        "City": "Holy Cross",
        "State": "IA",
        "Zip": "52053",
        "FullAddress": "20340 Holy Cross Road, Holy Cross, IA 52053",
        "Category": "Agronomy",
        "FacilityName": "Holy Cross Agronomy",
        "LongName": "Three Rivers FS - IA",
        "MatchTier": "T1",
        "GeoSource": "FACILITY"
      }
    },
    {
      "type": "Feature",
      "geometry": {
        "type": "Point",
        "coordinates": [
          -91.46439,
          42.47518
        ]
      },
      "properties": {
        "Retailer": "Three Rivers FS",
        "Suppliers": "Growmark",
        "ContactName": "Paul Roberg",
        "ContactTitle": "",
        "Title": "",
        "Email": "proberg@threeriversfs.com",
        "OfficePhone": "",
        "CellPhone": "",
        "Address": "1000 S 5th Street",
        "City": "Manchester",
        "State": "IA",
        "Zip": "52057",
        "FullAddress": "1000 S 5th Street, Manchester, IA 52057",
        "Category": "Agronomy",
        "FacilityName": "Manchester Agronomy",
        "LongName": "Three Rivers FS - IA",
        "MatchTier": "T1",
        "GeoSource": "FACILITY"
      }
    },
    {
      "type": "Feature",
      "geometry": {
        "type": "Point",
        "coordinates": [
          -91.381665,
          42.869468
        ]
      },
      "properties": {
        "Retailer": "Three Rivers FS",
        "Suppliers": "Growmark",
        "ContactName": "Chad Keehner",
        "ContactTitle": "",
        "Title": "",
        "Email": "ckeehner@threeriversfs.com",
        "OfficePhone": "",
        "CellPhone": "",
        "Address": "24544 Hwy 13",
        "City": "Elkader",
        "State": "IA",
        "Zip": "52043",
        "FullAddress": "24544 Hwy 13, Elkader, IA 52043",
        "Category": "Agronomy",
        "FacilityName": "Elkader Agronomy",
        "LongName": "Three Rivers FS - IA",
        "MatchTier": "T1",
        "GeoSource": "FACILITY"
      }
    },
    {
      "type": "Feature",
      "geometry": {
        "type": "Point",
        "coordinates": [
          -91.113901,
          42.465029
        ]
      },
      "properties": {
        "Retailer": "Three Rivers FS",
        "Suppliers": "Growmark",
        "ContactName": "Tyler Smith",
        "ContactTitle": "",
        "Title": "",
        "Email": "tsmith@threeriversfs.com",
        "OfficePhone": "",
        "CellPhone": "",
        "Address": "32199 Olde Castle Road",
        "City": "Dyersville",
        "State": "IA",
        "Zip": "52040",
        "FullAddress": "32199 Olde Castle Road, Dyersville, IA 52040",
        "Category": "C-Store/Service/Energy",
        "FacilityName": "FAST STOP – Dyersville",
        "LongName": "Three Rivers FS - IA",
        "MatchTier": "T1",
        "GeoSource": "FACILITY"
      }
    },
    {
      "type": "Feature",
      "geometry": {
        "type": "Point",
        "coordinates": [
          -88.287276,
          39.980783
        ]
      },
      "properties": {
        "Retailer": "United Prairie, LLC",
        "Suppliers": "Winfield",
        "ContactName": "Curt Miller",
        "ContactTitle": "General Mgr.",
        "Title": "General Mgr.",
        "Email": "cmiller@unitedprairie.com",
        "OfficePhone": "217-485-6000",
        "CellPhone": "217-343-6324",
        "Address": "929 Co. Rd. 700 N.",
        "City": "Tolono",
        "State": "IL",
        "Zip": "61880",
        "FullAddress": "929 Co. Rd. 700 N., Tolono, IL 61880",
        "Category": "Corporate HQ",
        "FacilityName": "Tolono Headquarters",
        "LongName": "United Prairie LLC - IL",
        "MatchTier": "T2",
        "GeoSource": "FACILITY"
      }
    },
    {
      "type": "Feature",
      "geometry": {
        "type": "Point",
        "coordinates": [
          -88.287276,
          39.980783
        ]
      },
      "properties": {
        "Retailer": "United Prairie, LLC",
        "Suppliers": "Winfield",
        "ContactName": "Todd Shunk",
        "ContactTitle": "Sales Mgr.",
        "Title": "Sales Mgr.",
        "Email": "tshunk@unitedprairie.com",
        "OfficePhone": "217-485-6000",
        "CellPhone": "217-841-5360",
        "Address": "929 Co. Rd. 700 N.",
        "City": "Tolono",
        "State": "IL",
        "Zip": "61880",
        "FullAddress": "929 Co. Rd. 700 N., Tolono, IL 61880",
        "Category": "Corporate HQ",
        "FacilityName": "Tolono Headquarters",
        "LongName": "United Prairie LLC - IL",
        "MatchTier": "T2",
        "GeoSource": "FACILITY"
      }
    },
    {
      "type": "Feature",
      "geometry": {
        "type": "Point",
        "coordinates": [
          -88.287276,
          39.980783
        ]
      },
      "properties": {
        "Retailer": "United Prairie, LLC",
        "Suppliers": "Winfield",
        "ContactName": "Ben Rawlins",
        "ContactTitle": "Operations Mgr.",
        "Title": "Operations Mgr.",
        "Email": "brawlins@unitedprairie.com",
        "OfficePhone": "217-485-6000",
        "CellPhone": "217-841-5340",
        "Address": "929 Co. Rd. 700 N.",
        "City": "Tolono",
        "State": "IL",
        "Zip": "61880",
        "FullAddress": "929 Co. Rd. 700 N., Tolono, IL 61880",
        "Category": "Corporate HQ",
        "FacilityName": "Tolono Headquarters",
        "LongName": "United Prairie LLC - IL",
        "MatchTier": "T2",
        "GeoSource": "FACILITY"
      }
    },
    {
      "type": "Feature",
      "geometry": {
        "type": "Point",
        "coordinates": [
          -88.287276,
          39.980783
        ]
      },
      "properties": {
        "Retailer": "United Prairie, LLC",
        "Suppliers": "Winfield",
        "ContactName": "Greg Cahill",
        "ContactTitle": "Location Mgr.",
        "Title": "Location Mgr.",
        "Email": "gcahill@unitedprairie.com",
        "OfficePhone": "217-485-6000",
        "CellPhone": "217-480-7142",
        "Address": "929 Co. Rd. 700 N.",
        "City": "Tolono",
        "State": "IL",
        "Zip": "61880",
        "FullAddress": "929 Co. Rd. 700 N., Tolono, IL 61880",
        "Category": "Corporate HQ",
        "FacilityName": "Tolono Headquarters",
        "LongName": "United Prairie LLC - IL",
        "MatchTier": "T2",
        "GeoSource": "FACILITY"
      }
    },
    {
      "type": "Feature",
      "geometry": {
        "type": "Point",
        "coordinates": [
          -88.287276,
          39.980783
        ]
      },
      "properties": {
        "Retailer": "United Prairie, LLC",
        "Suppliers": "Winfield",
        "ContactName": "Aaron Grote",
        "ContactTitle": "GIS Manager",
        "Title": "GIS Manager",
        "Email": "agrote@unitedprairie.com",
        "OfficePhone": "217-485-6000",
        "CellPhone": "217-841-5337",
        "Address": "929 Co. Rd. 700 N.",
        "City": "Tolono",
        "State": "IL",
        "Zip": "61880",
        "FullAddress": "929 Co. Rd. 700 N., Tolono, IL 61880",
        "Category": "Corporate HQ",
        "FacilityName": "Tolono Headquarters",
        "LongName": "United Prairie LLC - IL",
        "MatchTier": "T2",
        "GeoSource": "FACILITY"
      }
    },
    {
      "type": "Feature",
      "geometry": {
        "type": "Point",
        "coordinates": [
          -88.287276,
          39.980783
        ]
      },
      "properties": {
        "Retailer": "United Prairie, LLC",
        "Suppliers": "Winfield",
        "ContactName": "Adam Hoerner",
        "ContactTitle": "Sales Agronomist",
        "Title": "Sales Agronomist",
        "Email": "ahoerner@unitedprairie.com",
        "OfficePhone": "217-485-6000",
        "CellPhone": "309-212-8439",
        "Address": "929 Co. Rd. 700 N.",
        "City": "Tolono",
        "State": "IL",
        "Zip": "61880",
        "FullAddress": "929 Co. Rd. 700 N., Tolono, IL 61880",
        "Category": "Corporate HQ",
        "FacilityName": "Tolono Headquarters",
        "LongName": "United Prairie LLC - IL",
        "MatchTier": "T2",
        "GeoSource": "FACILITY"
      }
    },
    {
      "type": "Feature",
      "geometry": {
        "type": "Point",
        "coordinates": [
          -88.5056,
          40.08942
        ]
      },
      "properties": {
        "Retailer": "United Prairie, LLC",
        "Suppliers": "Winfield",
        "ContactName": "Austin Wiggins",
        "ContactTitle": "Sales Agronomist",
        "Title": "Sales Agronomist",
        "Email": "awiggins@unitedprairie.com",
        "OfficePhone": "217-462-7711",
        "CellPhone": "217-419-5565",
        "Address": "1274 E. Old Rd. 47",
        "City": "White Heath",
        "State": "IL",
        "Zip": "61884",
        "FullAddress": "1274 E. Old Rd. 47, White Heath, IL 61884",
        "Category": "Agronomy",
        "FacilityName": "White Heath Agronomy",
        "LongName": "United Prairie LLC - IL",
        "MatchTier": "T2",
        "GeoSource": "FACILITY"
      }
    },
    {
      "type": "Feature",
      "geometry": {
        "type": "Point",
        "coordinates": [
          -91.441836,
          40.361477
        ]
      },
      "properties": {
        "Retailer": "URSA Farmers Coop",
        "Suppliers": "",
        "ContactName": "Truman Phillips",
        "ContactTitle": "General Mgr.",
        "Title": "General Mgr.",
        "Email": "tphillips@ursacoop.com",
        "OfficePhone": "",
        "CellPhone": "217-242-9480",
        "Address": "1 Water St.",
        "City": "Warsaw",
        "State": "IL",
        "Zip": "62379",
        "FullAddress": "1 Water St., Warsaw, IL 62379",
        "Category": "Agronomy",
        "FacilityName": "",
        "LongName": "",
        "MatchTier": "TBD",
        "GeoSource": "MAPBOX"
      }
    },
    {
      "type": "Feature",
      "geometry": {
        "type": "Point",
        "coordinates": [
          -95.90575,
          45.23998
        ]
      },
      "properties": {
        "Retailer": "West-Con Agronomy",
        "Suppliers": "Helena, Nutrien",
        "ContactName": "Darrell Bartz",
        "ContactTitle": "Agronomy Dept. Manager",
        "Title": "Agronomy Dept. Manager",
        "Email": "dbartz@west-con.com",
        "OfficePhone": "320-394-2171",
        "CellPhone": "218-948-2187",
        "Address": "520 County Road 9",
        "City": "Holloway",
        "State": "MN",
        "Zip": "56249",
        "FullAddress": "520 County Road 9, Holloway, MN 56249",
        "Category": "Agronomy",
        "FacilityName": "",
        "LongName": "",
        "MatchTier": "TBD",
        "GeoSource": "MAPBOX"
      }
    },
    {
      "type": "Feature",
      "geometry": {
        "type": "Point",
        "coordinates": [
          -96.207878,
          43.656237
        ]
      },
      "properties": {
        "Retailer": "West-Con Agronomy",
        "Suppliers": "Helena, Nutrien",
        "ContactName": "Brian Fick",
        "ContactTitle": "Area Agronomist",
        "Title": "Area Agronomist",
        "Email": "fickfive@gmail.com",
        "OfficePhone": "507-283-2053",
        "CellPhone": "507-220-2525",
        "Address": "City Center",
        "City": "Luverne",
        "State": "MN",
        "Zip": "56156",
        "FullAddress": "City Center, Luverne, MN 56156",
        "Category": "Agronomy",
        "FacilityName": "",
        "LongName": "",
        "MatchTier": "TBD",
        "GeoSource": "MAPBOX"
      }
    },
    {
      "type": "Feature",
      "geometry": {
        "type": "Point",
        "coordinates": [
          -95.90575,
          45.23998
        ]
      },
      "properties": {
        "Retailer": "Western Consolidated Coop.",
        "Suppliers": "Nutrien, Rosen's",
        "ContactName": "Darrell Bartz",
        "ContactTitle": "Agronomy Mgr.",
        "Title": "Agronomy Mgr.",
        "Email": "dbartz@west-con.com",
        "OfficePhone": "320-394-2180",
        "CellPhone": "320-241-7697",
        "Address": "520 Co. Rd.. 9",
        "City": "Holloway",
        "State": "MN",
        "Zip": "56249",
        "FullAddress": "520 Co. Rd.. 9, Holloway, MN 56249",
        "Category": "Agronomy",
        "FacilityName": "",
        "LongName": "",
        "MatchTier": "TBD",
        "GeoSource": "MAPBOX"
      }
    },
    {
      "type": "Feature",
      "geometry": {
        "type": "Point",
        "coordinates": [
          -92.265562,
          44.440834
        ]
      },
      "properties": {
        "Retailer": "Western Consolidated Coop.",
        "Suppliers": "Nutrien, Rosen's",
        "ContactName": "Scott Mattocks",
        "ContactTitle": "Asst. Agron. Mgr.",
        "Title": "Asst. Agron. Mgr.",
        "Email": "scott.mattocks@west-con.com",
        "OfficePhone": "320-394-2171",
        "CellPhone": "320-288-3279",
        "Address": "521 Co. Rd.. 9",
        "City": "Holloway",
        "State": "MN",
        "Zip": "56249",
        "FullAddress": "521 Co. Rd.. 9, Holloway, MN 56249",
        "Category": "Agronomy",
        "FacilityName": "",
        "LongName": "",
        "MatchTier": "TBD",
        "GeoSource": "MAPBOX"
      }
    },
    {
      "type": "Feature",
      "geometry": {
        "type": "Point",
        "coordinates": [
          -96.49053,
          45.815541
        ]
      },
      "properties": {
        "Retailer": "Wheaton Dumont Ag",
        "Suppliers": "Nutrien, Rosen's",
        "ContactName": "Kevin Grimes",
        "ContactTitle": "Agronomy Mgr.",
        "Title": "Agronomy Mgr.",
        "Email": "kevin.grimes@wdcoop.com",
        "OfficePhone": "320-563-8152",
        "CellPhone": "320-808-4938",
        "Address": "6587 US Hwy 75",
        "City": "Wheaton",
        "State": "MN",
        "Zip": "56296",
        "FullAddress": "6587 US Hwy 75, Wheaton, MN 56296",
        "Category": "Agronomy",
        "FacilityName": "",
        "LongName": "",
        "MatchTier": "TBD",
        "GeoSource": "MAPBOX"
      }
    }
  ]
}